{
  "spots": [
    {"id": "seoul-gyeongbokgung", "name": "경복궁", "region": "서울", "lat": 37.5796, "lng": 126.9770, "radius": 900, "category": "history", "description": "조선의 법궁. 근정전·경회루 등 국보급 전각이 즐비한 서울의 상징"},
    {"id": "seoul-bukchon", "name": "북촌한옥마을", "region": "서울", "lat": 37.5824, "lng": 126.9851, "radius": 600, "category": "history", "description": "600년 된 한옥 밀집 지역. 좁은 골목 사이로 전통 가옥이 이어진다"},
    {"id": "seoul-namsan", "name": "남산/N서울타워", "region": "서울", "lat": 37.5512, "lng": 126.9882, "radius": 1200, "category": "city", "description": "서울 중심부의 도심 산. 타워 전망대에서 서울 전경을 한눈에"},
    {"id": "seoul-changdeokgung", "name": "창덕궁/비원", "region": "서울", "lat": 37.5794, "lng": 126.9910, "radius": 900, "category": "history", "description": "유네스코 세계유산. 자연과 조화를 이룬 비밀 정원 후원이 압권"},
    {"id": "seoul-hongdae", "name": "홍대", "region": "서울", "lat": 37.5563, "lng": 126.9236, "radius": 800, "category": "city", "description": "젊음과 예술·음악이 넘치는 거리. 개성 있는 카페와 클럽 밀집"},
    {"id": "seoul-hangang", "name": "한강공원", "region": "서울", "lat": 37.5285, "lng": 126.9341, "radius": 2500, "category": "nature", "description": "서울 한복판을 가로지르는 강변 공원. 자전거·피크닉의 성지"},
    {"id": "seoul-bukhansan", "name": "북한산", "region": "서울", "lat": 37.6597, "lng": 126.9770, "radius": 5000, "category": "mountain", "description": "도심 속 국립공원. 백운대 정상에서 서울 전경 조망 가능"},
    {"id": "seoul-ddp", "name": "DDP 동대문디자인플라자", "region": "서울", "lat": 37.5669, "lng": 127.0091, "radius": 500, "category": "city", "description": "자하 하디드 설계의 유선형 랜드마크. 전시·쇼핑·패션의 허브"},
    {"id": "seoul-insadong", "name": "인사동", "region": "서울", "lat": 37.5740, "lng": 126.9860, "radius": 600, "category": "history", "description": "전통 공예품·갤러리·찻집이 모인 문화 거리"},
    {"id": "seoul-seoullo", "name": "서울로7017", "region": "서울", "lat": 37.5554, "lng": 126.9675, "radius": 500, "category": "city", "description": "옛 고가도로를 꽃길 공중정원으로 재탄생시킨 서울역 복합공간"},
    {"id": "gg-hwaseong", "name": "수원화성", "region": "경기", "lat": 37.2887, "lng": 127.0136, "radius": 1500, "category": "history", "description": "유네스코 세계유산. 정조대왕이 쌓은 아름다운 성곽"},
    {"id": "gg-namhansanseong", "name": "남한산성", "region": "경기", "lat": 37.4795, "lng": 127.1777, "radius": 3000, "category": "history", "description": "유네스코 세계유산. 산 전체를 아우르는 조선시대 산성"},
    {"id": "gg-imjingak", "name": "파주 임진각", "region": "경기", "lat": 37.8888, "lng": 126.7374, "radius": 2000, "category": "history", "description": "분단의 아픔을 느끼는 민통선 근처 평화공원"},
    {"id": "gg-heyri", "name": "파주 헤이리마을", "region": "경기", "lat": 37.7831, "lng": 126.7288, "radius": 1500, "category": "city", "description": "예술가들이 모여 사는 복합문화공간. 갤러리·박물관·카페 집결"},
    {"id": "gg-nami", "name": "남이섬", "region": "경기", "lat": 37.7901, "lng": 127.5278, "radius": 1500, "category": "nature", "description": "메타세쿼이아 가로수길로 유명한 드라마 촬영 명소"},
    {"id": "gg-dumulmeori", "name": "양평 두물머리", "region": "경기", "lat": 37.5310, "lng": 127.3023, "radius": 2000, "category": "nature", "description": "남한강과 북한강이 만나는 합수머리. 물안개 사진 명소"},
    {"id": "gg-ganghwa", "name": "강화도", "region": "인천", "lat": 37.7396, "lng": 126.4876, "radius": 8000, "category": "history", "description": "고인돌 유적지·마니산·전쟁 역사를 품은 서해의 역사 섬"},
    {"id": "ic-chinatown", "name": "인천 차이나타운", "region": "인천", "lat": 37.4759, "lng": 126.6176, "radius": 1000, "category": "city", "description": "한국 유일의 차이나타운. 짜장면 발상지로 이국적 분위기"},
    {"id": "ic-eurwangni", "name": "을왕리해수욕장", "region": "인천", "lat": 37.4478, "lng": 126.3830, "radius": 2000, "category": "beach", "description": "서해 낙조가 아름다운 수도권 가까운 해수욕장"},
    {"id": "ic-sorae", "name": "소래포구", "region": "인천", "lat": 37.4358, "lng": 126.7313, "radius": 1500, "category": "unique", "description": "수도권 최대 어항. 싱싱한 해산물과 젓갈로 유명"},
    {"id": "gw-seoraksan", "name": "설악산", "region": "강원", "lat": 38.1197, "lng": 128.4656, "radius": 12000, "category": "mountain", "description": "국립공원의 정수. 공룡능선·울산바위·대청봉이 사계절 절경"},
    {"id": "gw-gyeongpodae", "name": "강릉 경포대", "region": "강원", "lat": 37.7969, "lng": 128.8996, "radius": 3000, "category": "beach", "description": "관동팔경 중 으뜸. 경포호와 백사장이 어우러진 동해 최고 해변"},
    {"id": "gw-ojukheon", "name": "강릉 오죽헌", "region": "강원", "lat": 37.7774, "lng": 128.8694, "radius": 800, "category": "history", "description": "신사임당·율곡 이이의 생가. 오만원권 지폐의 배경"},
    {"id": "gw-abai", "name": "속초 아바이마을", "region": "강원", "lat": 38.2081, "lng": 128.5909, "radius": 1500, "category": "unique", "description": "함경도 실향민이 만든 마을. 아바이순대와 갯배가 명물"},
    {"id": "gw-nami-chuncheon", "name": "춘천 명동/닭갈비골목", "region": "강원", "lat": 37.8817, "lng": 127.7296, "radius": 1500, "category": "unique", "description": "춘천 닭갈비와 막국수의 본고장. 낭만적인 호반 도시"},
    {"id": "gw-jeongseon", "name": "정선 아라리마을", "region": "강원", "lat": 37.3786, "lng": 128.6613, "radius": 2000, "category": "unique", "description": "아리랑의 고장. 5일장과 레일바이크로 유명"},
    {"id": "gw-daegwallyeong", "name": "평창 대관령", "region": "강원", "lat": 37.6721, "lng": 128.7424, "radius": 6000, "category": "mountain", "description": "국내 최대 목장 지대. 양떼목장·선자령이 펼쳐진 고원 천국"},
    {"id": "gw-samcheok", "name": "삼척 죽서루", "region": "강원", "lat": 37.4496, "lng": 129.1683, "radius": 1000, "category": "history", "description": "관동팔경의 하나. 오십천 절벽 위에 선 고려시대 정자"},
    {"id": "gw-woljeongsa", "name": "오대산 월정사", "region": "강원", "lat": 37.6840, "lng": 128.5567, "radius": 4000, "category": "history", "description": "신라 창건 고찰. 전나무 숲길이 아름다운 천년 사찰"},
    {"id": "gw-naksansa", "name": "양양 낙산사", "region": "강원", "lat": 38.1116, "lng": 128.6395, "radius": 1500, "category": "history", "description": "동해 바다를 바라보는 관음 성지. 해수관음상이 장관"},
    {"id": "gw-baekdamsa", "name": "인제 백담사", "region": "강원", "lat": 38.1516, "lng": 128.4667, "radius": 5000, "category": "history", "description": "내설악 깊숙이 자리한 만해 한용운의 수행지"},
    {"id": "gw-tongil", "name": "고성 통일전망대", "region": "강원", "lat": 38.5834, "lng": 128.3691, "radius": 2000, "category": "history", "description": "최북단 민통선 전망대. 금강산을 조망할 수 있는 분단의 현장"},
    {"id": "gw-hantangang", "name": "철원 한탄강", "region": "강원", "lat": 38.2311, "lng": 127.3029, "radius": 5000, "category": "nature", "description": "화산 현무암 협곡. 주상절리·고석정·직탕폭포가 절경"},
    {"id": "gw-taeback", "name": "태백 황지연못/고원자연휴양림", "region": "강원", "lat": 37.1649, "lng": 128.9883, "radius": 2000, "category": "nature", "description": "한강 발원지. 해발 700m 고원 도시의 맑은 공기"},
    {"id": "cb-dodamsambong", "name": "단양 도담삼봉", "region": "충북", "lat": 36.9994, "lng": 128.3638, "radius": 2000, "category": "nature", "description": "남한강 한가운데 우뚝 솟은 세 봉우리. 단양팔경 중 으뜸"},
    {"id": "cb-chungjuho", "name": "충주호", "region": "충북", "lat": 37.0125, "lng": 128.0303, "radius": 6000, "category": "nature", "description": "충주댐이 만든 내륙 최대 호수. 유람선 여행 명소"},
    {"id": "cb-beopjusa", "name": "속리산 법주사", "region": "충북", "lat": 36.5435, "lng": 127.8325, "radius": 6000, "category": "history", "description": "국립공원 속리산 품의 신라 고찰. 청동 미륵대불이 압도적"},
    {"id": "cb-sangdang", "name": "청주 상당산성", "region": "충북", "lat": 36.6592, "lng": 127.5391, "radius": 2000, "category": "history", "description": "조선시대 석성. 성벽 따라 걷는 트레킹 코스"},
    {"id": "cb-cheongpungho", "name": "제천 청풍호", "region": "충북", "lat": 37.0381, "lng": 128.1763, "radius": 4000, "category": "nature", "description": "케이블카와 비봉산이 어우러진 산간 호수 여행지"},
    {"id": "cn-kkotji", "name": "태안 꽃지해변", "region": "충남", "lat": 36.5231, "lng": 126.3033, "radius": 3000, "category": "beach", "description": "할미·할아비 바위 사이로 지는 낙조가 환상적인 서해 해변"},
    {"id": "cn-daecheon", "name": "보령 대천해수욕장", "region": "충남", "lat": 36.3247, "lng": 126.5358, "radius": 3000, "category": "beach", "description": "세계 4대 머드 축제 개최지. 서해 최대 규모 해수욕장"},
    {"id": "cn-gongsanseong", "name": "공주 공산성", "region": "충남", "lat": 36.4602, "lng": 127.1294, "radius": 1500, "category": "history", "description": "유네스코 세계유산. 백제 웅진 도읍의 왕성"},
    {"id": "cn-baekje", "name": "부여 백제역사유적", "region": "충남", "lat": 36.2798, "lng": 126.9099, "radius": 3000, "category": "history", "description": "유네스코 세계유산. 정림사지·부소산성 등 백제의 찬란한 유산"},
    {"id": "cn-haemi", "name": "서산 해미읍성", "region": "충남", "lat": 36.7012, "lng": 126.5645, "radius": 1500, "category": "history", "description": "조선 가장 잘 보존된 읍성. 천주교 순교 성지"},
    {"id": "cn-anmyeon", "name": "태안 안면도", "region": "충남", "lat": 36.4524, "lng": 126.3814, "radius": 6000, "category": "beach", "description": "천리포수목원·꽃박람회로 유명한 서해 최대 섬 아닌 반도"},
    {"id": "dj-expo", "name": "엑스포과학공원", "region": "대전", "lat": 36.3745, "lng": 127.3883, "radius": 2000, "category": "city", "description": "93 대전 엑스포 개최지. 한빛탑과 다양한 과학 체험시설"},
    {"id": "dj-gyejoksan", "name": "계족산 황톳길", "region": "대전", "lat": 36.4253, "lng": 127.4615, "radius": 3000, "category": "mountain", "description": "14.5km 맨발 황톳길 산책로. 도심 속 힐링 명소"},
    {"id": "jb-jeonju-hanok", "name": "전주한옥마을", "region": "전북", "lat": 35.8151, "lng": 127.1497, "radius": 2000, "category": "history", "description": "700여 채 한옥이 밀집. 비빔밥·막걸리·전통문화 체험의 메카"},
    {"id": "jb-naejangsan", "name": "내장산", "region": "전북", "lat": 35.4850, "lng": 126.8897, "radius": 8000, "category": "mountain", "description": "전국 최고의 단풍 명산. 내장사와 단풍 터널이 환상적"},
    {"id": "jb-byeonsan", "name": "변산반도", "region": "전북", "lat": 35.6165, "lng": 126.6005, "radius": 8000, "category": "nature", "description": "내변산·외변산·채석강을 아우르는 국립공원. 서해 절경"},
    {"id": "jb-maisan", "name": "마이산", "region": "전북", "lat": 35.7405, "lng": 127.4117, "radius": 3000, "category": "mountain", "description": "말귀처럼 솟은 역고드름 신비 명산. 탑사 돌탑이 장관"},
    {"id": "jb-deokyusan", "name": "무주 덕유산", "region": "전북", "lat": 35.8817, "lng": 127.7289, "radius": 8000, "category": "mountain", "description": "무주리조트와 향적봉을 품은 사계절 산악 여행지"},
    {"id": "jb-gunsan", "name": "군산 근대역사거리", "region": "전북", "lat": 35.9699, "lng": 126.7113, "radius": 2000, "category": "history", "description": "일제강점기 건물이 고스란히 남은 시간여행 거리"},
    {"id": "jb-seonunsa", "name": "고창 선운사", "region": "전북", "lat": 35.5074, "lng": 126.5833, "radius": 3000, "category": "history", "description": "꽃무릇·동백꽃으로 유명한 백제 고찰. 도솔암 마애불이 신비롭다"},
    {"id": "jn-suncheonman", "name": "순천만 국가정원", "region": "전남", "lat": 34.9017, "lng": 127.4870, "radius": 5000, "category": "nature", "description": "국내 최초 국가정원. 갈대밭과 흑두루미 도래지로 유명"},
    {"id": "jn-boseong-tea", "name": "보성 녹차밭", "region": "전남", "lat": 34.7720, "lng": 127.0776, "radius": 3000, "category": "nature", "description": "드라마·CF 단골 촬영지. 초록 물결 치는 국내 최대 녹차밭"},
    {"id": "jn-damyang", "name": "담양 죽녹원·메타프로방스", "region": "전남", "lat": 35.3214, "lng": 126.9906, "radius": 2000, "category": "nature", "description": "대나무숲 산책과 떡갈비의 고장. 죽녹원이 힐링 성지"},
    {"id": "jn-yeosu", "name": "여수 오동도·밤바다", "region": "전남", "lat": 34.7410, "lng": 127.7615, "radius": 3000, "category": "unique", "description": "여수 밤바다로 유명. 동백꽃 섬 오동도와 케이블카 야경이 필수"},
    {"id": "jn-dolsan", "name": "여수 돌산도·향일암", "region": "전남", "lat": 34.6538, "lng": 127.7870, "radius": 4000, "category": "history", "description": "일출 명소 향일암과 갓김치의 고장 돌산도"},
    {"id": "jn-ttangkkeut", "name": "해남 땅끝마을", "region": "전남", "lat": 34.2897, "lng": 126.6044, "radius": 3000, "category": "unique", "description": "한반도 최남단. 땅끝탑에서 시작하는 국토종주의 출발점"},
    {"id": "jn-jindo", "name": "진도 신비의바닷길", "region": "전남", "lat": 34.4048, "lng": 126.3110, "radius": 3000, "category": "unique", "description": "매년 음력 2월 말 바다가 갈라지는 모세의 기적 현장"},
    {"id": "jn-cheongsando", "name": "완도 청산도", "region": "전남", "lat": 34.1716, "lng": 126.8650, "radius": 4000, "category": "island", "description": "슬로시티 1호. 구들장 논·돌담길이 있는 느림의 섬"},
    {"id": "jn-narodo", "name": "고흥 나로도·우주센터", "region": "전남", "lat": 34.4271, "lng": 127.5434, "radius": 5000, "category": "unique", "description": "나로호 발사대가 있는 항공우주과학관과 청정 해안"},
    {"id": "jn-purple", "name": "신안 퍼플섬", "region": "전남", "lat": 34.7576, "lng": 125.8880, "radius": 3000, "category": "island", "description": "건물·꽃·옷 모두 보라색. 전 세계가 주목한 색깔 테마 섬"},
    {"id": "jn-hwaeomsa", "name": "구례 화엄사·산수유마을", "region": "전남", "lat": 35.2239, "lng": 127.5143, "radius": 4000, "category": "history", "description": "지리산 자락의 화엄사와 봄 산수유꽃으로 유명한 구례"},
    {"id": "jn-mokpo", "name": "목포 근대역사관·유달산", "region": "전남", "lat": 34.7950, "lng": 126.3924, "radius": 2500, "category": "history", "description": "개항 도시 목포의 근대 건축 유산과 유달산 야경"},
    {"id": "gj-518", "name": "광주 5.18 민주화광장", "region": "광주", "lat": 35.1458, "lng": 126.9223, "radius": 1500, "category": "history", "description": "한국 민주화의 성지. 5.18 기념공원과 옛 전남도청"},
    {"id": "gj-yangnim", "name": "광주 양림동", "region": "광주", "lat": 35.1391, "lng": 126.9015, "radius": 1000, "category": "history", "description": "100년 역사 선교사 마을과 근대 건축이 공존하는 골목"},
    {"id": "gj-mudeungsan", "name": "무등산", "region": "광주", "lat": 35.1293, "lng": 127.0004, "radius": 8000, "category": "mountain", "description": "광주 시민의 진산. 주상절리 서석대·입석대가 경이롭다"},
    {"id": "gb-bulguksa", "name": "경주 불국사·석굴암", "region": "경북", "lat": 35.7901, "lng": 129.3318, "radius": 4000, "category": "history", "description": "유네스코 세계유산. 통일신라 불교 건축의 정수"},
    {"id": "gb-cheomseongdae", "name": "경주 역사지구", "region": "경북", "lat": 35.8349, "lng": 129.2191, "radius": 3000, "category": "history", "description": "천년 신라의 노천 박물관. 첨성대·대릉원·동궁과 월지가 필수"},
    {"id": "gb-hahoe", "name": "안동 하회마을", "region": "경북", "lat": 36.5376, "lng": 128.5193, "radius": 3000, "category": "history", "description": "유네스코 세계유산. 낙동강이 휘감는 전통 씨족 마을"},
    {"id": "gb-buseoksa", "name": "영주 부석사", "region": "경북", "lat": 36.9996, "lng": 128.6655, "radius": 2500, "category": "history", "description": "우리나라 최고(最古) 목조건물 무량수전이 있는 천년 고찰"},
    {"id": "gb-ulleungdo", "name": "울릉도", "region": "경북", "lat": 37.4996, "lng": 130.8652, "radius": 9000, "category": "island", "description": "동해 화산섬. 성인봉·나리분지·봉래폭포와 오징어 먹방"},
    {"id": "gb-dokdo", "name": "독도", "region": "경북", "lat": 37.2427, "lng": 131.8669, "radius": 2000, "category": "island", "description": "대한민국 최동단 섬. 동도·서도와 89개 부속도서로 구성"},
    {"id": "gb-homigot", "name": "포항 호미곶", "region": "경북", "lat": 36.0746, "lng": 129.5700, "radius": 2000, "category": "unique", "description": "한반도 최동단 육지. 상생의 손 조형물과 새해 일출로 유명"},
    {"id": "gb-mungyeong", "name": "문경새재", "region": "경북", "lat": 36.8002, "lng": 128.1264, "radius": 5000, "category": "history", "description": "영남대로의 관문. 3개 관문과 옛길이 KBS 드라마 촬영지"},
    {"id": "gb-juwangsan", "name": "청송 주왕산", "region": "경북", "lat": 36.3810, "lng": 129.1605, "radius": 8000, "category": "mountain", "description": "기암절벽과 협곡이 장관인 국립공원. 주산지 왕버들이 신비롭다"},
    {"id": "gb-cheongnyangsan", "name": "봉화 청량산", "region": "경북", "lat": 36.8048, "lng": 128.9232, "radius": 5000, "category": "mountain", "description": "퇴계 이황이 사랑한 12봉 기암 산. 낙동강 상류가 내려다보인다"},
    {"id": "dg-palgongsan", "name": "팔공산", "region": "대구", "lat": 35.9977, "lng": 128.6956, "radius": 8000, "category": "mountain", "description": "대구의 진산. 갓바위 부처님은 소원 하나는 꼭 이뤄준다는 믿음"},
    {"id": "dg-apsan", "name": "앞산공원", "region": "대구", "lat": 35.8312, "lng": 128.5716, "radius": 3000, "category": "mountain", "description": "대구 도심 남쪽의 명산. 케이블카 타고 오르는 전망이 일품"},
    {"id": "dg-modern", "name": "대구 근대골목 투어", "region": "대구", "lat": 35.8656, "lng": 128.5924, "radius": 1000, "category": "history", "description": "계산성당·이상화 고택·약령시를 잇는 개항기 근대 골목 투어"},
    {"id": "gn-tongyeong", "name": "통영 한려수도", "region": "경남", "lat": 34.8545, "lng": 128.4333, "radius": 8000, "category": "nature", "description": "동양의 나폴리. 케이블카·이순신 유적·꿀빵과 미륵산 풍경"},
    {"id": "gn-geoje", "name": "거제도", "region": "경남", "lat": 34.8806, "lng": 128.6210, "radius": 12000, "category": "island", "description": "바람의 언덕·외도·학동흑진주몽돌해변이 있는 남해 최대 섬"},
    {"id": "gn-namhae", "name": "남해 독일마을·다랑이마을", "region": "경남", "lat": 34.8147, "lng": 127.9013, "radius": 8000, "category": "unique", "description": "파독 광부들이 귀향해 만든 독일마을과 계단식 논 다랑이마을"},
    {"id": "gn-haeinsa", "name": "합천 해인사", "region": "경남", "lat": 35.7999, "lng": 128.0987, "radius": 5000, "category": "history", "description": "팔만대장경을 품은 법보종찰. 가야산 깊은 곳의 천년 고찰"},
    {"id": "gn-upo", "name": "창녕 우포늪", "region": "경남", "lat": 35.5574, "lng": 128.4298, "radius": 5000, "category": "nature", "description": "1억 4천만 년 된 우리나라 최대 자연 내륙 습지"},
    {"id": "gn-ssanggyesa", "name": "하동 쌍계사·화개장터", "region": "경남", "lat": 35.1967, "lng": 127.5793, "radius": 3000, "category": "history", "description": "십리 벚꽃 길과 화개장터. 지리산 자락 쌍계사의 야생 녹차"},
    {"id": "gn-jirisan", "name": "지리산", "region": "경남", "lat": 35.3378, "lng": 127.7306, "radius": 14000, "category": "mountain", "description": "남한 최고봉 천왕봉(1915m). 3개 도에 걸친 민족의 영산"},
    {"id": "gn-goseong", "name": "고성 공룡나라", "region": "경남", "lat": 34.9770, "lng": 128.3046, "radius": 3000, "category": "unique", "description": "세계 3대 공룡발자국 화석지. 1억 년 전 공룡이 걸어 다닌 해안"},
    {"id": "gn-hamyang", "name": "함양 상림숲", "region": "경남", "lat": 35.5274, "lng": 127.7103, "radius": 2000, "category": "nature", "description": "최치원이 조성한 한국 최초 인공 숲. 낙엽 지는 가을이 절정"},
    {"id": "bs-haeundae", "name": "해운대해수욕장", "region": "부산", "lat": 35.1589, "lng": 129.1603, "radius": 3000, "category": "beach", "description": "국내 최대 해수욕장. 마린시티 스카이라인과 함께 부산의 상징"},
    {"id": "bs-gwangalli", "name": "광안리해수욕장", "region": "부산", "lat": 35.1535, "lng": 129.1186, "radius": 2000, "category": "beach", "description": "광안대교 야경이 아름다운 도심 해변. 불꽃 축제 명소"},
    {"id": "bs-gamcheon", "name": "감천문화마을", "region": "부산", "lat": 35.0977, "lng": 129.0101, "radius": 1500, "category": "city", "description": "산비탈에 색색 집이 빼곡한 부산의 마추픽추"},
    {"id": "bs-taejongdae", "name": "태종대", "region": "부산", "lat": 35.0484, "lng": 129.0829, "radius": 3000, "category": "nature", "description": "영도 남단 해안 절벽 공원. 등대·전망대·다누비 열차"},
    {"id": "bs-jagalchi", "name": "자갈치시장", "region": "부산", "lat": 35.0966, "lng": 129.0303, "radius": 1000, "category": "unique", "description": "아지매! 아지매!. 국내 최대 수산물 시장과 신선회 한판"},
    {"id": "bs-yonggungsa", "name": "해동용궁사", "region": "부산", "lat": 35.1862, "lng": 129.2236, "radius": 1500, "category": "history", "description": "바다 위에 세워진 사찰. 파도 소리와 함께 기도하는 이색 사찰"},
    {"id": "bs-jukseong", "name": "기장 죽성드림성당", "region": "부산", "lat": 35.2564, "lng": 129.2248, "radius": 1000, "category": "unique", "description": "바닷가 바위 위의 이색 성당. 드라마 세트장이 명소가 됐다"},
    {"id": "ul-ganjeolgot", "name": "간절곶", "region": "울산", "lat": 35.3543, "lng": 129.3791, "radius": 2000, "category": "unique", "description": "한반도에서 새해 해가 가장 먼저 뜨는 곳. 소망 우체통이 명물"},
    {"id": "ul-taehwagang", "name": "태화강 국가정원", "region": "울산", "lat": 35.5591, "lng": 129.3224, "radius": 3000, "category": "nature", "description": "오염된 강이 생태 강으로 부활. 십리대밭과 꽃정원이 아름답다"},
    {"id": "ul-bangudae", "name": "반구대 암각화", "region": "울산", "lat": 35.6047, "lng": 129.1595, "radius": 2000, "category": "history", "description": "세계 최초 고래잡이 기록. 7000년 전 선사인의 암벽 그림"},
    {"id": "jj-hallasan", "name": "한라산", "region": "제주", "lat": 33.3617, "lng": 126.5292, "radius": 12000, "category": "mountain", "description": "남한 최고봉(1950m). 백록담 분화구와 계절별 꽃밭이 압도적"},
    {"id": "jj-seongsan", "name": "성산일출봉", "region": "제주", "lat": 33.4588, "lng": 126.9423, "radius": 2500, "category": "nature", "description": "유네스코 세계자연유산. 바다에서 솟은 수성화산 분화구"},
    {"id": "jj-manjanggul", "name": "만장굴", "region": "제주", "lat": 33.5278, "lng": 126.7702, "radius": 2000, "category": "nature", "description": "유네스코 세계자연유산. 세계 최장 용암동굴 중 하나"},
    {"id": "jj-cheonjiyeon", "name": "천지연폭포", "region": "제주", "lat": 33.2467, "lng": 126.5590, "radius": 1500, "category": "nature", "description": "높이 22m 제주 최대 폭포. 밤에도 열리는 야간 조명이 낭만적"},
    {"id": "jj-seopjikoji", "name": "섭지코지", "region": "제주", "lat": 33.4338, "lng": 126.9218, "radius": 2000, "category": "nature", "description": "유채꽃·억새가 넘실대는 해안 돌출부. 유리의 성 건축물이 이색적"},
    {"id": "jj-hyeopjae", "name": "협재해수욕장", "region": "제주", "lat": 33.3946, "lng": 126.2396, "radius": 2000, "category": "beach", "description": "에메랄드빛 투명한 물과 흰 모래. 제주에서 가장 아름다운 해수욕장"},
    {"id": "jj-udo", "name": "우도", "region": "제주", "lat": 33.5014, "lng": 126.9518, "radius": 3500, "category": "island", "description": "소가 누운 형상의 섬. 땅콩 아이스크림·홍조단괴 해변이 유명"},
    {"id": "jj-bijarim", "name": "비자림", "region": "제주", "lat": 33.4785, "lng": 126.8117, "radius": 2000, "category": "nature", "description": "수령 500~800년 비자나무 2800그루. 피톤치드 가득한 신비한 숲"},
    {"id": "jj-yongduam", "name": "용두암", "region": "제주", "lat": 33.5162, "lng": 126.5089, "radius": 1000, "category": "nature", "description": "용이 하늘로 승천하다 굳어버린 10m 해안 기암"},
    {"id": "jj-oreum", "name": "새별오름", "region": "제주", "lat": 33.4012, "lng": 126.3221, "radius": 2000, "category": "mountain", "description": "억새밭 오름. 정월대보름 들불축제 개최지이자 사진 명소"},
    {"id": "jj-sangumburi", "name": "산굼부리", "region": "제주", "lat": 33.4484, "lng": 126.7267, "radius": 1500, "category": "nature", "description": "천연기념물 수직 화구. 가을 억새밭이 황금빛으로 출렁인다"},
    {"id": "gg-dobongsan", "name": "도봉산", "region": "경기", "lat": 37.6897, "lng": 127.0270, "radius": 4000, "category": "mountain", "description": "화강암 기암이 장관인 서울 근교 명산. 자운봉·만장봉·선인봉의 짜릿한 암릉"},
    {"id": "seoul-gwanaksan", "name": "관악산", "region": "서울", "lat": 37.4428, "lng": 126.9638, "radius": 3000, "category": "mountain", "description": "서울 남쪽 수호산. 연주대 정상과 기암괴석, 사계절 등산객이 끊이지 않는다"},
    {"id": "gg-cheongyesan", "name": "청계산", "region": "경기", "lat": 37.4115, "lng": 127.0445, "radius": 3000, "category": "mountain", "description": "수도권 남부 최고 인기 등산로. 매봉~옥녀봉 능선이 아름답다"},
    {"id": "cb-sobaeksan", "name": "소백산", "region": "충북", "lat": 36.9583, "lng": 128.4875, "radius": 7000, "category": "mountain", "description": "국립공원 철쭉 명산. 5월 비로봉 철쭉 군락은 전국 최고"},
    {"id": "cb-woraksan", "name": "월악산", "region": "충북", "lat": 36.8681, "lng": 128.0783, "radius": 5000, "category": "mountain", "description": "국립공원 영봉(1,097m). 충주호를 내려다보는 수직 절벽이 압도적"},
    {"id": "cn-gyeryongsan", "name": "계룡산", "region": "충남", "lat": 36.3539, "lng": 127.2053, "radius": 4000, "category": "mountain", "description": "삼남 4대 명산이자 풍수지리의 명당. 천정계곡·갑사·동학사 코스"},
    {"id": "gw-taebaeksan", "name": "태백산", "region": "강원", "lat": 37.0947, "lng": 128.9166, "radius": 4000, "category": "mountain", "description": "천제단과 주목 군락지. 눈 쌓인 겨울 주목 설경이 압도적인 명산"},
    {"id": "gw-chiaksan", "name": "치악산", "region": "강원", "lat": 37.3703, "lng": 128.0581, "radius": 6000, "category": "mountain", "description": "국립공원 비로봉(1,288m). 단풍·설경이 아름다운 강원 서부의 명산"},
    {"id": "gw-dutasan", "name": "두타산·무릉계곡", "region": "강원", "lat": 37.3616, "lng": 129.0806, "radius": 4000, "category": "mountain", "description": "동해안 최고 계곡 무릉계곡과 두타산·청옥산 종주 코스가 유명"},
    {"id": "gw-gariwangsan", "name": "가리왕산", "region": "강원", "lat": 37.4617, "lng": 128.5681, "radius": 5000, "category": "mountain", "description": "원시림이 살아있는 국가 보호 산림. 태고적 자연의 보고"},
    {"id": "gn-hwangmaesan", "name": "황매산", "region": "경남", "lat": 35.4964, "lng": 127.9910, "radius": 3000, "category": "mountain", "description": "5월 황매평전 철쭉 군락이 압권. 운해와 일출 사진 명소"},
    {"id": "gn-hwawangsan", "name": "화왕산", "region": "경남", "lat": 35.5413, "lng": 128.5614, "radius": 2000, "category": "mountain", "description": "가을 억새 군락으로 유명. 화왕산성과 억새 바람이 장관"},
    {"id": "jn-cheongwansan", "name": "천관산", "region": "전남", "lat": 34.6801, "lng": 126.9104, "radius": 2000, "category": "mountain", "description": "가을 억새와 기암괴석. 남도 명산으로 다도해 조망이 일품"},
    {"id": "jn-pallyeongsan", "name": "팔영산", "region": "전남", "lat": 34.6193, "lng": 127.4393, "radius": 2500, "category": "mountain", "description": "8개 암봉에서 내려다보는 다도해 절경. 오르기 쉬운 국립공원"},
    {"id": "gb-geumosan", "name": "금오산", "region": "경북", "lat": 36.1186, "lng": 128.3135, "radius": 3000, "category": "mountain", "description": "구미 도립공원. 케이블카와 해운사·약사암이 있는 영남 명산"},
    {"id": "jj-ollae", "name": "제주 올레길", "region": "제주", "lat": 33.4570, "lng": 126.9130, "radius": 5000, "category": "hiking", "description": "총 437km 26개 코스. 오름·바다·마을을 잇는 제주 대표 걷기 여행"},
    {"id": "jj-saeryeonikil", "name": "제주 사려니숲길", "region": "제주", "lat": 33.4380, "lng": 126.8040, "radius": 3000, "category": "hiking", "description": "해발 500~600m 삼나무·서어나무 원시림. 신비로운 피톤치드 숲길 15km"},
    {"id": "gn-jirisan-trail", "name": "지리산 둘레길", "region": "경남", "lat": 35.2850, "lng": 127.7100, "radius": 8000, "category": "hiking", "description": "3개 도 5개 시군을 잇는 295km 천리길. 산마을 문화와 자연 속 걷기"},
    {"id": "gw-haeparang", "name": "해파랑길", "region": "강원", "lat": 37.8000, "lng": 128.9200, "radius": 6000, "category": "hiking", "description": "부산~고성 770km 동해안 걷기길. 바다·해변·어촌마을을 따라 걷는 국내 최장 트레일"},
    {"id": "gg-bukhansan-trail", "name": "북한산 둘레길", "region": "경기", "lat": 37.6300, "lng": 127.0100, "radius": 5000, "category": "hiking", "description": "71.5km 숲속 길. 북한산 산자락을 감싸는 21개 구간의 힐링 트레킹"},
    {"id": "gg-dmz-trail", "name": "DMZ 평화누리길", "region": "경기", "lat": 38.0500, "lng": 127.0700, "radius": 5000, "category": "hiking", "description": "비무장지대를 따라 걷는 5개 구간 157km. 분단의 역사와 생태계가 공존"},
    {"id": "gw-baugil", "name": "강릉 바우길", "region": "강원", "lat": 37.7514, "lng": 128.8760, "radius": 3000, "category": "hiking", "description": "경포호·정동진·대관령을 잇는 17개 구간. 호수·숲·바다·산을 모두 걷는다"},
    {"id": "bs-galmaetgil", "name": "부산 갈맷길", "region": "부산", "lat": 35.1600, "lng": 129.1000, "radius": 5000, "category": "hiking", "description": "278km 9개 코스 부산 해안 걷기길. 해운대·태종대·이기대 해안이 핵심"},
    {"id": "jn-bireonggil", "name": "여수 금오도 비렁길", "region": "전남", "lat": 34.5810, "lng": 127.7900, "radius": 3000, "category": "hiking", "description": "해안 절벽 비렁(벼랑)을 따라가는 5개 코스 18.5km. 남해 절경 속 걷기"},
    {"id": "gn-baraegil", "name": "남해 바래길", "region": "경남", "lat": 34.8300, "lng": 127.9200, "radius": 4000, "category": "hiking", "description": "바다를 바라보며 걷는 해안 마을 트레킹. 쪽빛 남해와 다랭이논 조망"},
    {"id": "seoul-inwangsan", "name": "인왕산 한양도성길", "region": "서울", "lat": 37.5820, "lng": 126.9630, "radius": 1500, "category": "hiking", "description": "조선 한양도성 성곽을 따라 걷는 코스. 백악·인왕 구간에서 서울 전경 조망"},
    {"id": "seoul-jongmyo", "name": "종묘", "region": "서울", "lat": 37.5748, "lng": 126.9950, "radius": 1000, "category": "history", "description": "유네스코 세계유산. 조선 왕과 왕비의 신주를 모신 제례 공간"},
    {"id": "seoul-deoksugung", "name": "덕수궁·정동길", "region": "서울", "lat": 37.5651, "lng": 126.9752, "radius": 800, "category": "history", "description": "대한제국 황궁과 근대 역사의 길. 석조전·정동극장이 밀집한 역사 산책로"},
    {"id": "seoul-gwanghwamun", "name": "광화문광장", "region": "서울", "lat": 37.5750, "lng": 126.9769, "radius": 600, "category": "history", "description": "세종대왕·이순신 동상과 조선 정궁 앞 역사광장. 서울의 심장부"},
    {"id": "seoul-lottetower", "name": "롯데월드타워", "region": "서울", "lat": 37.5126, "lng": 127.1025, "radius": 500, "category": "city", "description": "555m 한국 최고층 빌딩. 서울스카이 전망대에서 360° 서울 파노라마"},
    {"id": "seoul-seongsu", "name": "성수동", "region": "서울", "lat": 37.5448, "lng": 127.0557, "radius": 1000, "category": "unique", "description": "수제화·공장 골목이 MZ 복합문화공간으로 변신. 힙한 팝업·카페 성지"},
    {"id": "seoul-ikseondong", "name": "익선동", "region": "서울", "lat": 37.5762, "lng": 126.9924, "radius": 500, "category": "unique", "description": "종로 레트로 한옥 골목. 좁은 골목 사이 개성 넘치는 술집·카페"},
    {"id": "seoul-cheonggye", "name": "청계천", "region": "서울", "lat": 37.5700, "lng": 126.9781, "radius": 2000, "category": "nature", "description": "도심을 가로지르는 하천 복원의 상징. 야경과 분수가 아름답다"},
    {"id": "seoul-seoulforest", "name": "서울숲", "region": "서울", "lat": 37.5448, "lng": 127.0376, "radius": 1000, "category": "nature", "description": "뚝섬에 조성된 도심 대형 공원. 사슴 방사장·갤러리정원 등"},
    {"id": "seoul-skylark", "name": "하늘공원", "region": "서울", "lat": 37.5709, "lng": 126.8835, "radius": 1000, "category": "nature", "description": "월드컵공원 내 억새 명소. 10월 억새축제와 서울 야경이 압도적"},
    {"id": "gg-japado", "name": "가평 자라섬", "region": "경기", "lat": 37.8338, "lng": 127.5134, "radius": 1500, "category": "nature", "description": "섬 전체가 캠핑장. 재즈 페스티벌과 꽃정원으로 유명한 도심 근교 섬"},
    {"id": "gg-bidulginang", "name": "포천 비둘기낭폭포", "region": "경기", "lat": 38.0726, "lng": 127.2456, "radius": 1000, "category": "nature", "description": "현무암 주상절리가 둘러싼 비경. 드라마·CF 단골 촬영지"},
    {"id": "gg-sanjeonghosu", "name": "포천 산정호수", "region": "경기", "lat": 37.9620, "lng": 127.1897, "radius": 2000, "category": "nature", "description": "화악산 자락의 아름다운 인공 호수. 봄 벚꽃·겨울 빙어로 유명"},
    {"id": "gg-jebudo", "name": "화성 제부도", "region": "경기", "lat": 37.2229, "lng": 126.6260, "radius": 2000, "category": "island", "description": "하루 두 번 열리는 바닷길로 이어지는 섬. 매바위·해넘이가 절경"},
    {"id": "gg-yongmunsa", "name": "양평 용문사", "region": "경기", "lat": 37.5546, "lng": 127.5887, "radius": 2000, "category": "history", "description": "수령 1100년 은행나무 천연기념물. 가을 황금빛 단풍이 장관"},
    {"id": "gw-jajak-forest", "name": "인제 원대리 자작나무숲", "region": "강원", "lat": 38.1006, "lng": 128.1740, "radius": 2000, "category": "nature", "description": "138ha 자작나무 순림. 겨울 눈 쌓인 하얀 숲이 동화 속 세계"},
    {"id": "gw-bongpyeong", "name": "평창 봉평 메밀꽃밭", "region": "강원", "lat": 37.6244, "lng": 128.3900, "radius": 2000, "category": "nature", "description": "이효석 '메밀꽃 필 무렵' 배경. 9월 소복한 메밀꽃이 설원처럼 펼쳐진다"},
    {"id": "gw-anmok", "name": "강릉 안목 커피거리", "region": "강원", "lat": 37.7782, "lng": 128.9366, "radius": 1000, "category": "unique", "description": "바다 바라보며 마시는 커피. 강릉 커피 문화의 성지"},
    {"id": "gw-surf", "name": "양양 서피비치", "region": "강원", "lat": 38.0751, "lng": 128.6238, "radius": 1500, "category": "beach", "description": "국내 최고의 서핑 성지. 힙한 감성 카페와 파도가 공존하는 동해 해변"},
    {"id": "gw-cheongnyeongpo", "name": "영월 청령포", "region": "강원", "lat": 37.1817, "lng": 128.4748, "radius": 1000, "category": "history", "description": "단종이 유배된 강이 휘감는 육지 속 섬. 비극의 역사가 서린 절경"},
    {"id": "gw-hanban", "name": "영월 한반도지형", "region": "강원", "lat": 37.2253, "lng": 128.4419, "radius": 1500, "category": "unique", "description": "서강이 굽이쳐 만든 실물 한반도 지형. 전망대에서 내려다보는 뷰가 압권"},
    {"id": "gw-sogeumsan", "name": "원주 소금산 출렁다리", "region": "강원", "lat": 37.3866, "lng": 127.9286, "radius": 1500, "category": "unique", "description": "길이 200m 국내 최장 산악 출렁다리. 간현관광지 협곡이 발 아래"},
    {"id": "gw-hwacheon", "name": "화천 산천어축제", "region": "강원", "lat": 38.1063, "lng": 127.7082, "radius": 2000, "category": "unique", "description": "매년 1월 얼음낚시·맨손잡기. 세계 4대 겨울 축제 중 하나"},
    {"id": "gw-donggang", "name": "동강", "region": "강원", "lat": 37.1900, "lng": 128.7500, "radius": 5000, "category": "nature", "description": "정선~영월 구간 래프팅 성지. 석회암 절벽과 에메랄드 물빛이 압도적"},
    {"id": "cb-gosudong", "name": "단양 고수동굴", "region": "충북", "lat": 36.9854, "lng": 128.3660, "radius": 1000, "category": "nature", "description": "3억 년 석회암 동굴. 석순·종유석·석주가 만드는 지하 궁전"},
    {"id": "cb-sanmaki", "name": "괴산 산막이옛길", "region": "충북", "lat": 36.7847, "lng": 127.9130, "radius": 3000, "category": "hiking", "description": "괴산호를 따라 걷는 10km 호숫길. 숨겨진 비경과 기암괴석이 가득"},
    {"id": "cn-hyunchungsa", "name": "아산 현충사", "region": "충남", "lat": 36.8054, "lng": 127.0028, "radius": 1500, "category": "history", "description": "이순신 장군을 기리는 사당. 생가·유물관과 함께 민족의 성지"},
    {"id": "cn-oeam", "name": "아산 외암민속마을", "region": "충남", "lat": 36.7491, "lng": 127.0640, "radius": 1000, "category": "history", "description": "500년 전통 양반 마을. 초가·기와집과 돌담길이 고스란히 남아있다"},
    {"id": "cn-sinduri", "name": "태안 신두리 해안사구", "region": "충남", "lat": 36.8557, "lng": 126.2006, "radius": 2000, "category": "nature", "description": "국내 최대 해안사구. 바람이 만든 사막 지형, 희귀 생태계의 보고"},
    {"id": "cn-ecoinstitute", "name": "서천 국립생태원", "region": "충남", "lat": 36.1080, "lng": 126.6981, "radius": 2000, "category": "nature", "description": "전 세계 기후대를 하나의 건물에. 국내 최대 생태 체험·전시관"},
    {"id": "cn-donam", "name": "논산 돈암서원", "region": "충남", "lat": 36.2341, "lng": 127.1250, "radius": 1000, "category": "history", "description": "유네스코 세계유산 한국의 서원. 조선 예학의 산실"},
    {"id": "jb-mireuksa", "name": "익산 미륵사지", "region": "전북", "lat": 35.9760, "lng": 126.9680, "radius": 1500, "category": "history", "description": "국내 최대 석탑이 있는 백제 최대 사찰 터. 1400년의 장엄함"},
    {"id": "jb-gwanghallu", "name": "남원 광한루원", "region": "전북", "lat": 35.4111, "lng": 127.3908, "radius": 1000, "category": "history", "description": "춘향전의 배경. 춘향과 이몽룡이 만난 조선 최고의 누각 정원"},
    {"id": "jb-dolmen", "name": "고창 고인돌 유적", "region": "전북", "lat": 35.5149, "lng": 126.6434, "radius": 2000, "category": "history", "description": "유네스코 세계유산. 447기 고인돌이 밀집한 선사시대의 성지"},
    {"id": "jn-maehwa", "name": "광양 매화마을", "region": "전남", "lat": 35.0833, "lng": 127.6926, "radius": 2000, "category": "nature", "description": "매년 3월 섬진강 변 매화 100만 그루 개화. 남도 봄의 시작"},
    {"id": "jn-daeheungsa", "name": "해남 대흥사", "region": "전남", "lat": 34.5207, "lng": 126.6444, "radius": 2000, "category": "history", "description": "두륜산 자락 천년 고찰. 13명의 대종사를 배출한 서산대사의 법맥"},
    {"id": "jn-bulgapsa", "name": "영광 불갑사", "region": "전남", "lat": 35.2524, "lng": 126.5293, "radius": 2000, "category": "nature", "description": "9월 꽃무릇 군락지. 붉은 상사화 꽃이 사찰을 가득 덮는 장관"},
    {"id": "jn-gokseong", "name": "곡성 기차마을", "region": "전남", "lat": 35.2826, "lng": 127.2919, "radius": 1500, "category": "unique", "description": "증기기관차가 달리는 섬진강 기차마을. 레일바이크와 동화나라"},
    {"id": "jn-dasan", "name": "강진 다산초당", "region": "전남", "lat": 34.6344, "lng": 126.8131, "radius": 1000, "category": "history", "description": "정약용이 18년 유배 중 목민심서를 집필한 장소. 차밭과 초당"},
    {"id": "jn-woryusan", "name": "영암 월출산", "region": "전남", "lat": 34.7690, "lng": 126.7033, "radius": 4000, "category": "mountain", "description": "호남의 금강산. 기암 바위와 구름다리·천황봉이 절경"},
    {"id": "jn-hongdo", "name": "신안 홍도", "region": "전남", "lat": 34.6893, "lng": 125.1859, "radius": 2000, "category": "island", "description": "천연기념물 213호 전체. 홍색 섬에 원시 자연이 그대로"},
    {"id": "jn-heuksando", "name": "신안 흑산도", "region": "전남", "lat": 34.6866, "lng": 125.4419, "radius": 3000, "category": "island", "description": "최남서단 원시 섬. 홍어의 본고장, 정약전 유배지"},
    {"id": "jn-bogildo", "name": "완도 보길도", "region": "전남", "lat": 34.1836, "lng": 126.5289, "radius": 4000, "category": "island", "description": "고산 윤선도가 은거한 섬. 세연정과 청정 해수욕장이 아름답다"},
    {"id": "gb-hoeryongpo", "name": "예천 회룡포", "region": "경북", "lat": 36.6573, "lng": 128.2018, "radius": 2000, "category": "nature", "description": "낙동강이 350° 휘감아 도는 육지 속 섬 마을. 비룡산 뷰포인트"},
    {"id": "gb-yangdong", "name": "경주 양동마을", "region": "경북", "lat": 35.9037, "lng": 129.2349, "radius": 2000, "category": "history", "description": "유네스코 세계유산. 500년 된 씨족 마을, 조선 양반 문화의 정수"},
    {"id": "gb-dosanseowon", "name": "안동 도산서원", "region": "경북", "lat": 36.6834, "lng": 128.7158, "radius": 1500, "category": "history", "description": "유네스코 세계유산. 퇴계 이황이 후학을 가르친 사림의 성지"},
    {"id": "gb-guryongpo", "name": "포항 구룡포", "region": "경북", "lat": 35.9918, "lng": 129.5500, "radius": 1500, "category": "history", "description": "일제강점기 일본인 가옥 거리. 드라마 '동백꽃 필 무렵' 촬영지"},
    {"id": "gb-bullyeongsa", "name": "울진 불영사계곡", "region": "경북", "lat": 36.9700, "lng": 129.1500, "radius": 5000, "category": "nature", "description": "15km 청정 계곡. 불영사와 기암이 어우러진 동해 비경"},
    {"id": "gb-unmunsa", "name": "청도 운문사", "region": "경북", "lat": 35.7185, "lng": 128.8751, "radius": 2000, "category": "history", "description": "비구니 사찰 중 최대. 처진 소나무와 청정 계곡이 있는 고찰"},
    {"id": "gb-buncheon", "name": "봉화 분천 산타마을", "region": "경북", "lat": 36.9383, "lng": 128.9183, "radius": 1000, "category": "unique", "description": "산골 간이역이 산타마을로 변신. 겨울 설경 속 아기자기한 유럽풍"},
    {"id": "gb-munmu", "name": "경주 문무대왕 수중릉", "region": "경북", "lat": 35.5961, "lng": 129.4726, "radius": 1500, "category": "history", "description": "바다 속 바위가 문무왕의 무덤. 세계 유일의 해중 왕릉"},
    {"id": "gn-tongdosa", "name": "양산 통도사", "region": "경남", "lat": 35.4893, "lng": 129.0588, "radius": 2000, "category": "history", "description": "한국 3대 사찰 불보종찰. 자장율사 창건, 부처님 진신사리 봉안"},
    {"id": "gn-namsayedamchon", "name": "산청 남사예담촌", "region": "경남", "lat": 35.2148, "lng": 127.8741, "radius": 1000, "category": "history", "description": "600년 전통 담장과 고택이 즐비. 조선 선비 마을의 원형"},
    {"id": "gn-milyang-yeongnamnu", "name": "밀양 영남루", "region": "경남", "lat": 35.4935, "lng": 128.7461, "radius": 1000, "category": "history", "description": "조선 3대 누각. 밀양강 절벽 위 웅장한 누각과 야경"},
    {"id": "gn-milyang-eolumgol", "name": "밀양 얼음골", "region": "경남", "lat": 35.5741, "lng": 128.9456, "radius": 2000, "category": "nature", "description": "한여름에도 얼음이 어는 신비 계곡. 천연기념물 224호"},
    {"id": "gn-junam", "name": "창원 주남저수지", "region": "경남", "lat": 35.3573, "lng": 128.7007, "radius": 3000, "category": "nature", "description": "겨울 철새 도래지. 재두루미·독수리 등 수만 마리가 찾아온다"},
    {"id": "gn-somaemuldo", "name": "통영 소매물도", "region": "경남", "lat": 34.6109, "lng": 128.2639, "radius": 2000, "category": "island", "description": "작은 섬과 등대섬을 잇는 바닷길. 쪽빛 바다 위 등대가 그림 같다"},
    {"id": "gn-geumsan", "name": "남해 금산 보리암", "region": "경남", "lat": 34.8369, "lng": 127.9328, "radius": 2000, "category": "nature", "description": "한려해상 위 기암 능선. 보리암 관음상에서 바라보는 남해 절경"},
    {"id": "gn-sacheon", "name": "사천 바다케이블카", "region": "경남", "lat": 34.9393, "lng": 128.0710, "radius": 1500, "category": "unique", "description": "삼천포~창선도 연결 해상 케이블카. 남해 다도해 조망이 압권"},
    {"id": "bs-hinyeoul", "name": "부산 흰여울문화마을", "region": "부산", "lat": 35.0665, "lng": 129.0203, "radius": 800, "category": "unique", "description": "영도 절벽 위 하얀 골목 마을. 부산의 산토리니, 영화 '변호인' 촬영지"},
    {"id": "bs-oryukdo", "name": "부산 오륙도", "region": "부산", "lat": 35.0667, "lng": 129.1371, "radius": 1500, "category": "nature", "description": "보는 방향과 조수에 따라 5~6개로 보이는 전설의 기암 섬"},
    {"id": "bs-ahopsan", "name": "기장 아홉산 숲", "region": "부산", "lat": 35.2848, "lng": 129.2080, "radius": 2000, "category": "nature", "description": "400년 된 맹종죽 대나무숲과 편백나무 숲. 영화 촬영지"},
    {"id": "dg-biseulsan", "name": "달성 비슬산", "region": "대구", "lat": 35.7128, "lng": 128.4989, "radius": 5000, "category": "mountain", "description": "4월 100만 그루 참꽃(진달래) 군락지. 천왕봉~대견봉 암릉 산행"},
    {"id": "ic-songdo", "name": "인천 송도 센트럴파크", "region": "인천", "lat": 37.3895, "lng": 126.6574, "radius": 2000, "category": "city", "description": "해수 운하가 흐르는 도심 공원. 신도시 미래 경관과 수상택시"},
    {"id": "ic-baengnyeongdo", "name": "인천 백령도", "region": "인천", "lat": 37.9672, "lng": 124.7068, "radius": 5000, "category": "island", "description": "최북방 섬. 두무진 주상절리·콩돌해안·사곶 천연비행장이 절경"},
    {"id": "ic-deokjeokdo", "name": "인천 덕적도", "region": "인천", "lat": 37.2356, "lng": 126.1394, "radius": 3000, "category": "island", "description": "수도권 근거리 청정 섬. 서포리해수욕장의 원시적 아름다움"},
    {"id": "ic-muuido", "name": "인천 무의도", "region": "인천", "lat": 37.3688, "lng": 126.3984, "radius": 3000, "category": "island", "description": "인천공항 근처 섬. 하나개 해수욕장과 호룡곡산 트레킹"},
    {"id": "ul-daewangam", "name": "울산 대왕암공원", "region": "울산", "lat": 35.4924, "lng": 129.4278, "radius": 1500, "category": "nature", "description": "100년 넘은 해송 3만 그루와 기암괴석 해안. 울산 제일의 명소"},
    {"id": "jj-marado", "name": "마라도", "region": "제주", "lat": 33.1174, "lng": 126.2639, "radius": 1000, "category": "island", "description": "한반도 최남단 유인도. 짜장면 원조 논쟁의 섬, 천연기념물 423호"},
    {"id": "jj-gapado", "name": "가파도", "region": "제주", "lat": 33.1709, "lng": 126.2666, "radius": 2000, "category": "island", "description": "4월 청보리밭이 에메랄드빛으로 물드는 탄소제로 슬로시티"},
    {"id": "jj-geomunoreum", "name": "거문오름", "region": "제주", "lat": 33.5132, "lng": 126.7729, "radius": 2000, "category": "nature", "description": "유네스코 세계자연유산 용암동굴계 입구. 원시 화산 지형"},
    {"id": "jj-cheonjeyeon", "name": "천제연폭포", "region": "제주", "lat": 33.2538, "lng": 126.5044, "radius": 1000, "category": "nature", "description": "3단 폭포와 선녀 전설. 무지개다리·중문 관광단지의 숨은 보석"},
    {"id": "jj-jusangjeolli", "name": "중문 대포 주상절리", "region": "제주", "lat": 33.2329, "lng": 126.4241, "radius": 1000, "category": "nature", "description": "파도에 깎인 6각형 현무암 주상절리 절벽. 제주 지질의 교과서"},
    {"id": "jj-darangswi", "name": "다랑쉬오름", "region": "제주", "lat": 33.4591, "lng": 126.8679, "radius": 1500, "category": "mountain", "description": "제주 동부 최고 오름. 완벽한 원형 분화구와 360° 제주 파노라마"},
    {"id": "jj-jungseub", "name": "서귀포 이중섭 거리", "region": "제주", "lat": 33.2479, "lng": 126.5636, "radius": 1000, "category": "unique", "description": "천재 화가 이중섭이 피난 살던 거리. 이중섭미술관·문화거리"},
    {"id": "jj-jeoji", "name": "제주 저지 예술인마을", "region": "제주", "lat": 33.3398, "lng": 126.2343, "radius": 1000, "category": "unique", "description": "제주 예술의 메카. 현대미술관·오설록 티뮤지엄이 인근"},
    {"id": "theme-everland", "name": "에버랜드", "region": "경기", "lat": 37.2938, "lng": 127.2024, "radius": 1500, "category": "theme", "description": "국내 최대 테마파크. 롤러코스터·캐리비안 베이·사파리 월드·장미축제 등 사계절 볼거리"},
    {"id": "theme-lotteworld", "name": "롯데월드 어드벤처", "region": "서울", "lat": 37.5114, "lng": 127.0983, "radius": 1000, "category": "theme", "description": "세계 최대 실내 테마파크. 잠실 석촌호수 옆, 매직아일랜드 야외 공원과 함께"},
    {"id": "theme-legoland", "name": "레고랜드 코리아", "region": "강원", "lat": 37.8700, "lng": 127.7240, "radius": 1200, "category": "theme", "description": "춘천 중도에 위치한 국내 첫 레고랜드. 레고 테마 어트랙션·워터파크 복합"},
    {"id": "theme-seoullland", "name": "서울랜드", "region": "경기", "lat": 37.4443, "lng": 126.9805, "radius": 1000, "category": "theme", "description": "과천 서울대공원 인근. 5개 테마존·퍼레이드·동물원과 함께 즐기는 가족 공원"},
    {"id": "theme-gyeongjuworld", "name": "경주월드", "region": "경북", "lat": 35.8447, "lng": 129.1510, "radius": 1200, "category": "theme", "description": "경북 최대 테마파크. 불국사 인근, 워터파크 캘리포니아 비치 포함"},
    {"id": "theme-tongdo", "name": "통도환타지아", "region": "경남", "lat": 35.3480, "lng": 129.0360, "radius": 1200, "category": "theme", "description": "경남 양산의 복합 테마파크. 계절별 축제와 야간 조명쇼"},
    {"id": "theme-oworld", "name": "오월드", "region": "대전", "lat": 36.3066, "lng": 127.3845, "radius": 1000, "category": "theme", "description": "대전 테마파크·동물원·식물원 복합. 주라기 공원존·버드랜드 인기"},
    {"id": "theme-eworld", "name": "이월드", "region": "대구", "lat": 35.8226, "lng": 128.5496, "radius": 1000, "category": "theme", "description": "대구 앞산 자락 테마파크. 83타워 전망대·서머워터 워터파크 포함"},
    {"id": "theme-lotteworld-busan", "name": "롯데월드 어드벤처 부산", "region": "부산", "lat": 35.1798, "lng": 129.0890, "radius": 1200, "category": "theme", "description": "기장 동부산관광단지 내 대규모 테마파크. 해운대 바다를 조망하며 즐기는 어트랙션"},
    {"id": "resort-hione", "name": "하이원리조트", "region": "강원", "lat": 37.1982, "lng": 128.8946, "radius": 3000, "category": "resort", "description": "정선 백운산 해발 1340m. 스키·골프·카지노·폭포 트레킹 사계절 리조트"},
    {"id": "resort-vivaldi", "name": "비발디파크", "region": "강원", "lat": 37.6869, "lng": 128.2005, "radius": 2000, "category": "resort", "description": "홍천 대명리조트. 오션월드 워터파크로 유명한 여름·겨울 복합 리조트"},
    {"id": "resort-phoenix", "name": "휘닉스파크", "region": "강원", "lat": 37.5648, "lng": 128.4766, "radius": 2000, "category": "resort", "description": "평창 봉평. 스키장·클럽메드 빌리지·오션700 워터파크 포함 올시즌 리조트"},
    {"id": "resort-alpensia", "name": "알펜시아리조트", "region": "강원", "lat": 37.6554, "lng": 128.6717, "radius": 2000, "category": "resort", "description": "평창 2018 동계올림픽 메인 베이스. 스키점프대·바이애슬론 경기장 관람 가능"},
    {"id": "resort-yongpyong", "name": "용평리조트", "region": "강원", "lat": 37.6701, "lng": 128.6895, "radius": 3000, "category": "resort", "description": "국내 최초 스키장 (1975년 개장). 드래곤플라자·발왕산 케이블카, 겨울연가 촬영지"},
    {"id": "resort-oakvalley", "name": "오크밸리", "region": "강원", "lat": 37.3678, "lng": 127.7230, "radius": 2000, "category": "resort", "description": "원주 치악산 자락 골프·스키·스파 복합 리조트. 아트밸리 문화예술 프로그램"},
    {"id": "resort-wellihilli", "name": "웰리힐리파크", "region": "강원", "lat": 37.4510, "lng": 128.5564, "radius": 2000, "category": "resort", "description": "횡성 덕고산 스키 리조트. 완만한 슬로프로 가족·입문자에게 인기"},
    {"id": "resort-jisan", "name": "지산포레스트리조트", "region": "경기", "lat": 37.2316, "lng": 127.5050, "radius": 1500, "category": "resort", "description": "이천 산악 지형 스키·골프 리조트. 수도권 당일치기 스키 명소"},
    {"id": "resort-shinhwa", "name": "제주 신화월드", "region": "제주", "lat": 33.3910, "lng": 126.2250, "radius": 2000, "category": "resort", "description": "제주 서쪽 대규모 복합 리조트. 워터파크·테마파크·카지노·호텔 통합 엔터테인먼트"},
    {"id": "resort-paradise", "name": "파라다이스시티", "region": "인천", "lat": 37.4693, "lng": 126.6520, "radius": 1500, "category": "resort", "description": "영종도 인천공항 인근. 카지노·아트테인먼트·클럽·스파 복합 럭셔리 리조트"},
    {"id": "park-olympic", "name": "서울 올림픽공원", "region": "서울", "lat": 37.5212, "lng": 127.1225, "radius": 2000, "category": "park", "description": "1988 서울올림픽 유산. 9경 산책로·몽촌토성·KSPO돔·야외 조각공원"},
    {"id": "park-ilsan-lake", "name": "일산 호수공원", "region": "경기", "lat": 37.6630, "lng": 126.7749, "radius": 2000, "category": "park", "description": "국내 최대 인공호수 공원. 노래하는 분수대·자연생태관찰원·장미축제"},
    {"id": "park-gwangyo-lake", "name": "광교호수공원", "region": "경기", "lat": 37.2793, "lng": 127.0541, "radius": 2000, "category": "park", "description": "수원 신도시의 친환경 호수공원. 원천·신대 저수지 둘레길 트레킹"},
    {"id": "park-incheon-daegong", "name": "인천대공원", "region": "인천", "lat": 37.4059, "lng": 126.7438, "radius": 3000, "category": "park", "description": "수도권 최대 도시자연공원. 저수지·수목원·캠핑장 포함"},
    {"id": "park-taebaeksan", "name": "태백산국립공원", "region": "강원", "lat": 37.0982, "lng": 128.9150, "radius": 8000, "category": "park", "description": "천제단이 있는 영산. 겨울 눈꽃 트레킹과 고원 야생화 군락"},
    {"id": "park-sobaeksan", "name": "소백산국립공원", "region": "충북", "lat": 36.9627, "lng": 128.4842, "radius": 9000, "category": "park", "description": "철쭉과 연화봉으로 유명. 단양·영주를 연결하는 충북 대표 명산"},
    {"id": "park-woraksan", "name": "월악산국립공원", "region": "충북", "lat": 36.8745, "lng": 128.0836, "radius": 8000, "category": "park", "description": "충주호를 배경으로 솟은 영봉. 송계계곡·덕주사·미륵대원 사지"},
    {"id": "park-byeonsanbando", "name": "변산반도국립공원", "region": "전북", "lat": 35.6437, "lng": 126.5509, "radius": 8000, "category": "park", "description": "산과 바다가 공존하는 유일한 국립공원. 채석강·직소폭포·내소사"},
    {"id": "park-mudeungsan", "name": "무등산국립공원", "region": "광주", "lat": 35.1240, "lng": 126.9880, "radius": 8000, "category": "park", "description": "광주의 진산. 주상절리 서석대·입석대·증심사가 어우러진 명산"},
    {"id": "park-wolchulsan", "name": "월출산국립공원", "region": "전남", "lat": 34.7626, "lng": 126.6921, "radius": 5000, "category": "park", "description": "호남의 소금강. 기암절벽과 천황봉·구름다리가 장관인 전남 명산"},
    {"id": "park-dadohae", "name": "다도해해상국립공원", "region": "전남", "lat": 34.6790, "lng": 125.5680, "radius": 15000, "category": "park", "description": "1965개 섬을 아우르는 국내 최대 국립공원. 홍도·흑산도의 절경"},
    {"id": "park-hallyeohaesang", "name": "한려해상국립공원", "region": "경남", "lat": 34.7553, "lng": 128.0453, "radius": 12000, "category": "park", "description": "통영·거제·남해를 잇는 해상 국립공원. 비진도·소매물도 보석 같은 섬"},
    {"id": "park-gayasan", "name": "가야산국립공원", "region": "경남", "lat": 35.8079, "lng": 128.1293, "radius": 8000, "category": "park", "description": "해인사를 품은 경남 명산. 만물상·칠불봉 가을 단풍 명소"},
    {"id": "park-juwangsan", "name": "주왕산국립공원", "region": "경북", "lat": 36.3948, "lng": 129.1527, "radius": 7000, "category": "park", "description": "수직 암벽과 폭포의 조화. 주왕암·주왕계곡·달기약수탕이 유명"},
    {"id": "park-palgongsan", "name": "팔공산국립공원", "region": "대구", "lat": 35.9951, "lng": 128.6877, "radius": 9000, "category": "park", "description": "대구의 진산. 갓바위 관봉·동화사·팔공산 케이블카"},
    {"id": "park-taeanhaeaan", "name": "태안해안국립공원", "region": "충남", "lat": 36.7374, "lng": 126.1516, "radius": 12000, "category": "park", "description": "300km 리아스 해안 절경. 신두리 해안사구·학암포·꽃지 할미바위"},
    {"id": "park-igilae", "name": "부산 이기대공원", "region": "부산", "lat": 35.1002, "lng": 129.1145, "radius": 2000, "category": "park", "description": "해안 절벽을 따라 걷는 4.7km 해안산책로. 부산 오륙도 조망"},
    {"id": "park-expo", "name": "대전 엑스포과학공원", "region": "대전", "lat": 36.3726, "lng": 127.3907, "radius": 2000, "category": "park", "description": "1993 대전엑스포 레거시 과학공원. 한빛탑·아쿠아리움"},
    {"id": "park-daegu-dalseong", "name": "대구 달성공원", "region": "대구", "lat": 35.8697, "lng": 128.5806, "radius": 1500, "category": "park", "description": "대구 도심 속 사적공원. 조선시대 읍성 터에 자리한 역사·동물 복합공원"},
    {"id": "park-jeju-arboretum", "name": "한라수목원", "region": "제주", "lat": 33.4651, "lng": 126.5089, "radius": 1500, "category": "park", "description": "제주 자생식물 2000여 종. 열대식물원·야생화 군락"},
    {"id": "temple-jogyesa", "name": "조계사", "region": "서울", "lat": 37.5720, "lng": 126.9813, "radius": 500, "category": "temple", "description": "대한불교조계종 총본산. 서울 도심 천년 고찰, 연등회·석가탄신일 명소"},
    {"id": "temple-songwangsa", "name": "순천 송광사", "region": "전남", "lat": 34.9843, "lng": 127.2778, "radius": 2000, "category": "temple", "description": "삼보사찰 승보종찰. 16명의 국사를 배출한 한국 불교 수행의 중심"},
    {"id": "temple-seonamsa", "name": "순천 선암사", "region": "전남", "lat": 34.9633, "lng": 127.3081, "radius": 2000, "category": "temple", "description": "유네스코 세계유산. 전통 다원과 매화 명소로 봄이 특히 아름다운 사찰"},
    {"id": "temple-magoksa", "name": "공주 마곡사", "region": "충남", "lat": 36.5360, "lng": 126.9088, "radius": 2000, "category": "temple", "description": "유네스코 세계유산. 백범 김구가 은거한 사찰로도 유명한 태화산 고찰"},
    {"id": "temple-daeheungsa", "name": "해남 대흥사", "region": "전남", "lat": 34.5494, "lng": 126.6065, "radius": 2000, "category": "temple", "description": "유네스코 세계유산. 두륜산 자락, 서산대사 유물 봉안 13대사 종찰"},
    {"id": "temple-busuksa", "name": "영주 부석사", "region": "경북", "lat": 36.9569, "lng": 128.6612, "radius": 2000, "category": "temple", "description": "신라 의상대사 창건. 무량수전 배흘림기둥·안양루·선묘 설화가 유명"},
    {"id": "temple-bongjeongsa", "name": "안동 봉정사", "region": "경북", "lat": 36.5870, "lng": 128.7455, "radius": 1500, "category": "temple", "description": "유네스코 세계유산. 현존 가장 오래된 목조건물 극락전(고려 1363년)"},
    {"id": "temple-sudeoksa", "name": "예산 수덕사", "region": "충남", "lat": 36.6849, "lng": 126.6490, "radius": 2000, "category": "temple", "description": "덕숭산 백제 고찰. 대웅전 국보, 만공스님·이응노 화백의 인연"},
    {"id": "temple-jikjisa", "name": "김천 직지사", "region": "경북", "lat": 36.1244, "lng": 128.1178, "radius": 2000, "category": "temple", "description": "신라 아도화상 창건 황악산 고찰. 사명대사가 출가한 사찰"},
    {"id": "temple-baegyangsa", "name": "장성 백양사", "region": "전남", "lat": 35.5046, "lng": 126.8780, "radius": 2000, "category": "temple", "description": "고불총림. 단풍과 갈참나무 숲길이 아름다운 전남 명찰"},
    {"id": "temple-donghaksa", "name": "계룡산 동학사", "region": "충남", "lat": 36.4102, "lng": 127.2408, "radius": 2000, "category": "temple", "description": "계룡산국립공원 품의 사찰. 벚꽃 명소이자 신라 때 창건된 유서 깊은 절"},
    {"id": "temple-pyochungsa", "name": "밀양 표충사", "region": "경남", "lat": 35.5350, "lng": 128.9140, "radius": 2000, "category": "temple", "description": "사명대사 유물 봉안 사충사. 재약산 얼음골·층층폭포와 함께 탐방"},
    {"id": "museum-national-central", "name": "국립중앙박물관", "region": "서울", "lat": 37.5248, "lng": 126.9803, "radius": 800, "category": "museum", "description": "한국 최대 박물관. 국보 청자·금관 등 40만 점 소장, 무료 상설전"},
    {"id": "museum-folklore", "name": "국립민속박물관", "region": "서울", "lat": 37.5800, "lng": 126.9780, "radius": 600, "category": "museum", "description": "경복궁 내 민속 전문 박물관. 한국인의 일생·세시풍속 등 생활문화"},
    {"id": "museum-war-memorial", "name": "전쟁기념관", "region": "서울", "lat": 37.5368, "lng": 126.9773, "radius": 1000, "category": "museum", "description": "한국 근현대 전쟁사 총망라. 6.25 참전 장비·재현 전시, 실외 전시장"},
    {"id": "museum-mmca", "name": "국립현대미술관 서울관", "region": "서울", "lat": 37.5794, "lng": 126.9770, "radius": 600, "category": "museum", "description": "경복궁 옆 현대미술 전문관. 국내외 현대작가 기획전·건물 자체가 예술"},
    {"id": "museum-seoul-history", "name": "서울역사박물관", "region": "서울", "lat": 37.5713, "lng": 126.9698, "radius": 600, "category": "museum", "description": "조선 도읍에서 현대까지 서울 600년 역사. 경희궁 옆 무료 관람"},
    {"id": "museum-gyeongju", "name": "국립경주박물관", "region": "경북", "lat": 35.8234, "lng": 129.2268, "radius": 800, "category": "museum", "description": "신라 문화재 보고. 에밀레종(성덕대왕신종)·금관·천마도 원본 소장"},
    {"id": "museum-buyeo", "name": "국립부여박물관", "region": "충남", "lat": 36.2756, "lng": 126.9102, "radius": 800, "category": "museum", "description": "백제 문화재 전문 박물관. 백제금동대향로(국보) 진품 소장"},
    {"id": "museum-gongju", "name": "국립공주박물관", "region": "충남", "lat": 36.4529, "lng": 127.1285, "radius": 800, "category": "museum", "description": "무령왕릉 출토품 전문 전시. 금제 관식·구슬 등 백제 귀족 문화"},
    {"id": "museum-independence", "name": "독립기념관", "region": "충남", "lat": 36.8945, "lng": 127.1526, "radius": 2000, "category": "museum", "description": "천안 독립기념관. 일제강점기 항일운동 7개 전시관·겨레의 탑"},
    {"id": "museum-jeonju", "name": "국립전주박물관", "region": "전북", "lat": 35.8095, "lng": 127.1419, "radius": 800, "category": "museum", "description": "전북 역사·문화 집약. 조선 왕실 어진·호남 유물 전시"},
    {"id": "museum-gwangju", "name": "국립광주박물관", "region": "광주", "lat": 35.1762, "lng": 126.9132, "radius": 800, "category": "museum", "description": "전남 역사·예술 대표 박물관. 신안 해저 유물·고려청자 컬렉션"},
    {"id": "museum-daegu", "name": "국립대구박물관", "region": "대구", "lat": 35.8712, "lng": 128.5979, "radius": 800, "category": "museum", "description": "영남 복식·생활 문화 특화. 섬유·의복 관련 독자적 컬렉션"},
    {"id": "museum-maritime", "name": "국립해양박물관", "region": "부산", "lat": 35.0838, "lng": 129.0581, "radius": 1000, "category": "museum", "description": "한국 유일 해양 전문 국립박물관. 해양 역사·생태·수족관 복합"},
    {"id": "museum-gimhae", "name": "국립김해박물관", "region": "경남", "lat": 35.2303, "lng": 128.8810, "radius": 800, "category": "museum", "description": "가야 문화 전문 국립박물관. 금관·철기·토기 등 가야 유물의 보고"},
    {"id": "museum-jinju", "name": "국립진주박물관", "region": "경남", "lat": 35.1916, "lng": 128.0975, "radius": 800, "category": "museum", "description": "진주성 내 임진왜란 전문 박물관. 논개·의병 관련 유물 전시"},
    {"id": "museum-chuncheon", "name": "국립춘천박물관", "region": "강원", "lat": 37.8620, "lng": 127.7420, "radius": 800, "category": "museum", "description": "강원 역사·문화 집약. 강원 불교미술·금강산 발굴 문화재 특화"},
    {"id": "museum-jeju", "name": "제주국립박물관", "region": "제주", "lat": 33.5018, "lng": 126.5206, "radius": 800, "category": "museum", "description": "제주 선사~근현대 역사 총망라. 탐라 역사·해녀문화·민속 유물"},
    {"id": "bridge-hantangang-sky", "name": "한탄강 하늘다리", "region": "강원", "lat": 38.0979, "lng": 127.3109, "radius": 1500, "category": "unique", "description": "철원 한탄강 현무암 협곡 위 50m 높이 출렁다리. 주상절리 협곡 조망"},
    {"id": "bridge-uiam", "name": "의암호 출렁다리", "region": "강원", "lat": 37.8790, "lng": 127.7370, "radius": 1500, "category": "unique", "description": "춘천 의암호 수면 위를 가로지르는 출렁다리. 호수·산 경치가 어우러진 명소"},
    {"id": "bridge-hwacheon", "name": "파로호 출렁다리", "region": "강원", "lat": 38.1060, "lng": 127.7050, "radius": 1500, "category": "unique", "description": "화천 파로호 위를 잇는 출렁다리. 에메랄드빛 호수와 산골 풍경"},
    {"id": "bridge-yeongwol", "name": "영월 어라연 출렁다리", "region": "강원", "lat": 37.1990, "lng": 128.4650, "radius": 1500, "category": "unique", "description": "동강 어라연 절경 위 출렁다리. 한반도 지형과 함께 영월 대표 명소"},
    {"id": "bridge-pocheon", "name": "한탄강 주상절리 출렁다리", "region": "경기", "lat": 38.0561, "lng": 127.2783, "radius": 1500, "category": "unique", "description": "포천 한탄강 주상절리길 위의 출렁다리. 현무암 협곡 위를 걷는 아찔한 경험"},
    {"id": "bridge-majang", "name": "마장호수 출렁다리", "region": "경기", "lat": 37.8310, "lng": 126.8120, "radius": 1500, "category": "unique", "description": "파주 마장호수 위 220m 출렁다리. 고즈넉한 호수 풍경과 산책로"},
    {"id": "bridge-cheongpung", "name": "청풍호반 출렁다리", "region": "충북", "lat": 37.0112, "lng": 128.1855, "radius": 1500, "category": "unique", "description": "제천 청풍호 위 222m 출렁다리. 충주호 절경을 발 아래로 내려다보는 명소"},
    {"id": "bridge-yedang", "name": "예당호 출렁다리", "region": "충남", "lat": 36.6849, "lng": 126.7820, "radius": 2000, "category": "unique", "description": "예산 예당호 위 402m, 국내 최장 호수 출렁다리. 낙조와 야경이 특히 유명"},
    {"id": "bridge-bonghwangsan", "name": "봉황산 출렁다리", "region": "충남", "lat": 36.4449, "lng": 127.1189, "radius": 1500, "category": "unique", "description": "공주 봉황산 자락 출렁다리. 공주 시가지와 금강 조망"},
    {"id": "bridge-yongdam", "name": "용담호 출렁다리", "region": "전북", "lat": 35.7900, "lng": 127.4270, "radius": 1500, "category": "unique", "description": "진안 용담호 위 출렁다리. 호남의 숨은 비경, 용담댐 수몰 전 마을 흔적"},
    {"id": "bridge-paekyasan", "name": "백아산 출렁다리", "region": "전남", "lat": 35.0270, "lng": 126.8760, "radius": 1500, "category": "unique", "description": "화순 백아산 정상부 출렁다리. 전남 들판이 펼쳐지는 탁 트인 전망"},
    {"id": "bridge-palgeyongsan", "name": "팔영산 출렁다리", "region": "전남", "lat": 34.6330, "lng": 127.5230, "radius": 1500, "category": "unique", "description": "고흥 팔영산 199m 출렁다리. 남해와 다도해 풍경을 360° 조망"},
    {"id": "bridge-gwangyang", "name": "광양 백운산 출렁다리", "region": "전남", "lat": 35.1800, "lng": 127.6690, "radius": 1500, "category": "unique", "description": "광양 백운산 협곡 위 출렁다리. 섬진강 상류 계곡과 울창한 원시림"},
    {"id": "bridge-gumi", "name": "구미 낙동강 출렁다리", "region": "경북", "lat": 36.1168, "lng": 128.3461, "radius": 1500, "category": "unique", "description": "낙동강 위 483m, 국내 최장급 보행 현수교. 구미 금오산과 낙동강 조망"},
    {"id": "bridge-andong", "name": "안동 낙동강 출렁다리", "region": "경북", "lat": 36.5682, "lng": 128.7235, "radius": 1500, "category": "unique", "description": "안동 월영교 인근 낙동강 출렁다리. 월영교 야경과 함께 안동의 밤을 수놓음"},
    {"id": "bridge-uljin", "name": "울진 구산해변 출렁다리", "region": "경북", "lat": 36.9960, "lng": 129.4200, "radius": 1500, "category": "unique", "description": "동해 절벽 위 해상 출렁다리. 동해 바다 위를 걷는 스릴과 에메랄드 바다"},
    {"id": "bridge-geoje", "name": "거제 신선대 출렁다리", "region": "경남", "lat": 34.9000, "lng": 128.6880, "radius": 1500, "category": "unique", "description": "거제 신선대 해안 절벽 위 출렁다리. 한려수도 다도해 절경 조망"},
    {"id": "bridge-hapcheon", "name": "합천 황강 출렁다리", "region": "경남", "lat": 35.5700, "lng": 128.0820, "radius": 1500, "category": "unique", "description": "합천 황강 위 출렁다리. 황매산과 가야산을 배경으로 한 경남 대표 명소"},
    {"id": "jb-gogs-island-trail", "name": "고군산 섬잇길", "region": "전북", "lat": 35.845, "lng": 126.598, "radius": 5000, "category": "hiking", "description": "말도~보농도~명도~광대도~방축도 5개 섬을 해상 인도교 4개(총 1356m)로 연결한 7.2km 트레일. 서해 위를 두 발로 걷는 국내 유일 해상 트레킹. 말도 등대(1909년)·천연기념물 501호 습곡구조 포함"},
    {"id": "cb-nongdari", "name": "진천 농다리", "region": "충북", "lat": 36.8556, "lng": 127.4832, "radius": 2000, "category": "hiking", "description": "고려시대 축조 추정, 충청북도 유형문화재. 붉은 돌을 물고기 비늘처럼 쌓은 길이 93.6m 돌다리. 주변 초평호 둘레길(8~11km)·미르309 출렁다리(국내 최장 무주탑 현수교)와 함께 진천 대표 트레킹 코스"},
    {"id": "cb-wolryubong", "name": "월류봉 둘레길", "region": "충북", "lat": 36.1556, "lng": 127.8760, "radius": 3000, "category": "hiking", "description": "영동 황간면 초강천을 휘감은 407m 절벽 봉우리. 8.4km 3개 구간(여울소리길·산새소리길·풍경소리길), 무장애 데크길. 우암 송시열 한천정사·반야사 보물 삼층석탑·한천팔경 제1경. 달이 머물다 간다는 뜻의 월류(月留)"},
    {"id": "sj-hosu", "name": "세종호수공원", "region": "세종", "lat": 36.4992, "lng": 127.2704, "radius": 600, "category": "park", "description": "국내 최대 규모 인공호수공원. 한국관광 100선에 선정된 세종의 대표 명소"},
    {"id": "sj-arboretum", "name": "국립세종수목원", "region": "세종", "lat": 36.5093, "lng": 127.2768, "radius": 800, "category": "nature", "description": "국내 최초 도심형 국립수목원. 사계절온실과 2600여 종 식물 보유"},
    {"id": "sj-ieum-bridge", "name": "이응다리", "region": "세종", "lat": 36.4963, "lng": 127.2653, "radius": 300, "category": "city", "description": "한글 'ㅇ' 모양의 보행전용 랜드마크 교량. 금강 위를 가로지르는 세종 야경 명소"},
    {"id": "sj-central-park", "name": "세종중앙공원", "region": "세종", "lat": 36.4854, "lng": 127.2582, "radius": 500, "category": "park", "description": "금강 남측 대규모 중심 녹지 생태공원. 산책·자전거·피크닉 모두 가능"},
    {"id": "sj-presidential-archive", "name": "대통령기록관", "region": "세종", "lat": 36.4980, "lng": 127.2820, "radius": 200, "category": "museum", "description": "역대 대통령 기록물 보존·전시 국가 기관. 무료 관람 가능"},
    {"id": "sj-beartree", "name": "베어트리파크", "region": "세종", "lat": 36.5987, "lng": 127.1889, "radius": 500, "category": "nature", "description": "반달곰과 꽃·나무가 어우러진 10만 평 생태공원. 사계절 꽃 축제로 유명"},
    {"id": "sj-gobuk", "name": "고복자연공원", "region": "세종", "lat": 36.5700, "lng": 127.1632, "radius": 400, "category": "nature", "description": "고복저수지 둘레를 걷는 힐링 산책 명소. 고즈넉한 수변 풍경이 일품"},
    {"id": "sj-biamsa", "name": "비암사", "region": "세종", "lat": 36.5504, "lng": 127.2126, "radius": 200, "category": "temple", "description": "신라시대 창건된 고즈넉한 천년 사찰. 세종시 전동면 산자락에 자리함"},
    {"id": "sj-library", "name": "국립세종도서관", "region": "세종", "lat": 36.5008, "lng": 127.2846, "radius": 200, "category": "city", "description": "정부세종청사 인근 국가 대표 공공도서관. 독특한 건축 외관이 인상적"},
    {"id": "sj-gov-garden", "name": "정부세종청사 옥상정원", "region": "세종", "lat": 36.5012, "lng": 127.2805, "radius": 300, "category": "city", "description": "15개 동을 잇는 정부청사 위 개방형 옥상정원. 세종 신도시 전경 조망"},
    {"id": "haeparang-01", "name": "해파랑길 1코스", "region": "부산", "lat": 35.1121, "lng": 129.1185, "radius": 5000, "category": "hiking", "description": "17.7km. 오륙도해맞이공원→이기대해안산책로→광안리→해운대. 해파랑길의 시작점이자 부산 해안 절경의 정수"},
    {"id": "haeparang-02", "name": "해파랑길 2코스", "region": "부산", "lat": 35.1693, "lng": 129.2020, "radius": 4000, "category": "hiking", "description": "13.7km. 미포→청사포→구덕포→송정해변→대변항. 해운대 동쪽 해안절벽과 어촌 풍경"},
    {"id": "haeparang-03", "name": "해파랑길 3코스", "region": "부산", "lat": 35.2210, "lng": 129.2350, "radius": 5000, "category": "hiking", "description": "20.2km. 대변항→연화리→칠암항→고리원전→임랑해변. 동부산 해안을 걷는 장거리 구간"},
    {"id": "haeparang-04", "name": "해파랑길 4코스", "region": "부산", "lat": 35.3150, "lng": 129.2700, "radius": 5000, "category": "hiking", "description": "19.7km. 임랑해변→서생포왜성→나사해변→진하해변. 부산 마지막 코스, 임진왜란 역사 흔적"},
    {"id": "haeparang-05", "name": "해파랑길 5코스", "region": "울산", "lat": 35.3800, "lng": 129.2550, "radius": 5000, "category": "hiking", "description": "18.0km. 진하해변→간절곶→덕하역. 한반도 본토 최동단 일출 명소 간절곶을 지나는 코스"},
    {"id": "haeparang-06", "name": "해파랑길 6코스", "region": "울산", "lat": 35.4500, "lng": 129.2350, "radius": 4000, "category": "hiking", "description": "15.7km. 덕하역→망성이마을→태화강전망대. 울산 태화강 십리대숲과 산업도시의 이면"},
    {"id": "haeparang-07", "name": "해파랑길 7코스", "region": "울산", "lat": 35.5100, "lng": 129.3250, "radius": 5000, "category": "hiking", "description": "18.1km. 태화강전망대→방어진→염포삼거리. 울산 공업지대 해안과 방어진 어항 풍경"},
    {"id": "haeparang-08", "name": "해파랑길 8코스", "region": "울산", "lat": 35.5400, "lng": 129.3900, "radius": 3000, "category": "hiking", "description": "11.7km. 염포삼거리→주전해변(몽돌)→일산해변. 울산 북구 해안 몽돌밭과 청정 해변"},
    {"id": "haeparang-09", "name": "해파랑길 9코스", "region": "울산", "lat": 35.6100, "lng": 129.4500, "radius": 5000, "category": "hiking", "description": "19.1km. 일산해변→강동화암주상절리→정자항. 천연기념물 주상절리와 정자항의 회센터가 볼거리"},
    {"id": "haeparang-10", "name": "해파랑길 10코스", "region": "경북", "lat": 35.7000, "lng": 129.4700, "radius": 4000, "category": "hiking", "description": "13.9km. 정자항→읍천항 벽화마을→양남주상절리→나아해변. 경주권 진입, 부채꼴 주상절리 명소"},
    {"id": "haeparang-11", "name": "해파랑길 11코스", "region": "경북", "lat": 35.7900, "lng": 129.4900, "radius": 5000, "category": "hiking", "description": "18.9km. 나아해변→봉길해변→문무왕 수중릉(대왕암)→감포항. 신라 문무왕의 수중 왕릉을 품은 역사 코스"},
    {"id": "haeparang-12", "name": "해파랑길 12코스", "region": "경북", "lat": 35.8300, "lng": 129.5100, "radius": 3500, "category": "hiking", "description": "13.0km. 감포항→오류고아라해변→전촌해변→양포항. 감포 어촌과 고즈넉한 해안길"},
    {"id": "haeparang-13", "name": "해파랑길 13코스", "region": "경북", "lat": 35.9200, "lng": 129.5500, "radius": 5000, "category": "hiking", "description": "18.3km. 양포항→장길리→병포해변→구룡포항. 구룡포 일본인 가옥거리와 과메기 특산지"},
    {"id": "haeparang-14", "name": "해파랑길 14코스", "region": "경북", "lat": 35.9700, "lng": 129.5700, "radius": 4000, "category": "hiking", "description": "15.3km. 구룡포항→석병리→호미곶. 한반도 최동단 호미곶과 '상생의 손' 조형물"},
    {"id": "haeparang-15", "name": "해파랑길 15코스", "region": "경북", "lat": 36.0300, "lng": 129.5400, "radius": 4000, "category": "hiking", "description": "14.4km. 호미곶→연오랑세오녀테마공원→도구해변. 포항 남부 해안과 신라 설화의 현장"},
    {"id": "haeparang-16", "name": "해파랑길 16코스", "region": "경북", "lat": 36.0900, "lng": 129.4600, "radius": 6000, "category": "hiking", "description": "23.3km. 흥환→형산강하구→포항 시내→송도해변. 포항 도심을 관통하는 가장 긴 구간"},
    {"id": "haeparang-17", "name": "해파랑길 17코스", "region": "경북", "lat": 36.1600, "lng": 129.3900, "radius": 4500, "category": "hiking", "description": "17.1km. 송도해변→월포해변→칠포해변. 포항 북부 청정 해안을 따라 이어지는 코스"},
    {"id": "haeparang-18", "name": "해파랑길 18코스", "region": "경북", "lat": 36.2400, "lng": 129.3700, "radius": 5000, "category": "hiking", "description": "19.4km. 칠포해변→청하해변→고래불해변→화진해변. 영덕 진입 전 포항 최북단 해안"},
    {"id": "haeparang-19", "name": "해파랑길 19코스", "region": "경북", "lat": 36.3200, "lng": 129.3700, "radius": 4000, "category": "hiking", "description": "15.7km. 화진해변→영덕 블루로드→경정해변→강구항. 대게 특산지 강구항을 잇는 영덕 명품 해안"},
    {"id": "haeparang-20", "name": "해파랑길 20코스", "region": "경북", "lat": 36.4000, "lng": 129.4000, "radius": 5000, "category": "hiking", "description": "18.8km. 강구항→축산항→영덕해맞이공원. 영덕 풍력발전단지와 창포해변 일출 명소"},
    {"id": "haeparang-21", "name": "해파랑길 21코스", "region": "경북", "lat": 36.4600, "lng": 129.4100, "radius": 3500, "category": "hiking", "description": "12.2km. 영덕해맞이공원→풍력발전단지→축산항. 바람개비 언덕과 동해 조망이 압권인 짧은 명코스"},
    {"id": "haeparang-22", "name": "해파랑길 22코스", "region": "경북", "lat": 36.5400, "lng": 129.4200, "radius": 4500, "category": "hiking", "description": "16.1km. 축산항→경정해변→대소산봉수대→고래볼해변. 봉수대에서 동해 전망 일품"},
    {"id": "haeparang-23", "name": "해파랑길 23코스", "region": "경북", "lat": 36.6000, "lng": 129.4500, "radius": 3000, "category": "hiking", "description": "10.1km. 고래볼해변→후포해변→후포등대→후포항. 등대와 작은 어촌을 잇는 아담한 코스"},
    {"id": "haeparang-24", "name": "해파랑길 24코스", "region": "경북", "lat": 36.6800, "lng": 129.4400, "radius": 5000, "category": "hiking", "description": "19.8km. 후포항→울진대게특구→망양정해변→기성. 울진 대게의 고장과 관동팔경 망양정"},
    {"id": "haeparang-25", "name": "해파랑길 25코스", "region": "경북", "lat": 36.7800, "lng": 129.4500, "radius": 6000, "category": "hiking", "description": "23.0km. 기성→망양정(관동팔경)→왕피천계곡입구→수산교. 울진 왕피천 생태경관보전지역 접경"},
    {"id": "haeparang-26", "name": "해파랑길 26코스", "region": "경북", "lat": 36.8800, "lng": 129.4300, "radius": 4500, "category": "hiking", "description": "16.2km. 수산교→온양온천→죽변등대→죽변항. 등대 드라마 촬영지 죽변과 온양온천"},
    {"id": "haeparang-27", "name": "해파랑길 27코스", "region": "경북", "lat": 36.9600, "lng": 129.4200, "radius": 2500, "category": "hiking", "description": "9.2km. 죽변항→봉평해변→직산해변→부구삼거리. 경북 최북단 구간, 울진의 끝"},
    {"id": "haeparang-28", "name": "해파랑길 28코스", "region": "강원", "lat": 37.0300, "lng": 129.3900, "radius": 3500, "category": "hiking", "description": "12.4km. 부구삼거리→나곡해변→삼척 경계. 경북-강원 경계를 넘는 해파랑길 강원 첫 코스"},
    {"id": "haeparang-29", "name": "해파랑길 29코스", "region": "강원", "lat": 37.1200, "lng": 129.3700, "radius": 6000, "category": "hiking", "description": "22.0km. 원덕→임원항→초곡용굴촛대바위→절터골. 삼척 해안 비경 촛대바위와 용굴"},
    {"id": "haeparang-30", "name": "해파랑길 30코스", "region": "강원", "lat": 37.2100, "lng": 129.3300, "radius": 2500, "category": "hiking", "description": "7.2km. 용화해변→해안 레일바이크→궁촌. 동해안 레일바이크길과 나란히 걷는 해안 코스"},
    {"id": "haeparang-31", "name": "해파랑길 31코스", "region": "강원", "lat": 37.2800, "lng": 129.2700, "radius": 3000, "category": "hiking", "description": "8.8km. 공양왕릉→마읍천→맹방해변. 고려 마지막 왕의 유배지와 너른 맹방해변"},
    {"id": "haeparang-32", "name": "해파랑길 32코스", "region": "강원", "lat": 37.3800, "lng": 129.2000, "radius": 6000, "category": "hiking", "description": "22.6km. 맹방해변→삼척해변→죽서루(관동팔경)→추암해변. 삼척 대표 명소를 모두 품은 핵심 코스"},
    {"id": "haeparang-33", "name": "해파랑길 33코스", "region": "강원", "lat": 37.4900, "lng": 129.1400, "radius": 3500, "category": "hiking", "description": "13.3km. 추암 촛대바위→동해역→한섬해변→묵호항. 촛대바위 일출과 묵호 등대마을"},
    {"id": "haeparang-34", "name": "해파랑길 34코스", "region": "강원", "lat": 37.5700, "lng": 129.1000, "radius": 5000, "category": "hiking", "description": "18.9km. 묵호등대공원→망상해변→옷재→옥계. 묵호 등대공원과 망상 오토캠핑리조트 해안"},
    {"id": "haeparang-35", "name": "해파랑길 35코스", "region": "강원", "lat": 37.6500, "lng": 128.9800, "radius": 3500, "category": "hiking", "description": "13.4km. 옥계해변→금진해변→정동진역. 모래시계 공원과 바다열차의 출발지 정동진"},
    {"id": "haeparang-36", "name": "해파랑길 36코스", "region": "강원", "lat": 37.6900, "lng": 128.9900, "radius": 2500, "category": "hiking", "description": "9.5km. 정동진→등명해변→안인해변. 정동진 일대 짧고 아름다운 해안 산책 코스"},
    {"id": "haeparang-37", "name": "해파랑길 37코스", "region": "강원", "lat": 37.7400, "lng": 128.9500, "radius": 4500, "category": "hiking", "description": "17.6km. 안인해변→강릉항(안목 커피거리)→사근진해변. 안목 커피거리와 강릉 해안"},
    {"id": "haeparang-38", "name": "해파랑길 38코스", "region": "강원", "lat": 37.8100, "lng": 128.8600, "radius": 5000, "category": "hiking", "description": "18.5km. 경포해변→경포대→허균·허난설헌기념공원. 강릉 대표 해변과 조선 문인의 흔적"},
    {"id": "haeparang-39", "name": "해파랑길 39코스", "region": "강원", "lat": 37.8700, "lng": 128.8400, "radius": 4500, "category": "hiking", "description": "16.1km. 솔바람다리→순긋해변→사천진리해변. 강릉 북부 소나무 해안림과 조용한 해변"},
    {"id": "haeparang-40", "name": "해파랑길 40코스", "region": "강원", "lat": 37.9200, "lng": 128.8100, "radius": 3500, "category": "hiking", "description": "12.4km. 사천진리해변→향호→주문진항. 향호 철새도래지와 주문진 어시장"},
    {"id": "haeparang-41", "name": "해파랑길 41코스", "region": "강원", "lat": 37.9900, "lng": 128.7000, "radius": 3500, "category": "hiking", "description": "12.2km. 주문진해변→강릉·양양 경계→남애항→죽도정. 강릉에서 양양으로 넘어가는 경계 구간"},
    {"id": "haeparang-42", "name": "해파랑길 42코스", "region": "강원", "lat": 38.0600, "lng": 128.7000, "radius": 2500, "category": "hiking", "description": "9.6km. 죽도정→광진해변→하조대(관동팔경). 관동팔경 하조대와 소나무 절벽의 절경"},
    {"id": "haeparang-43", "name": "해파랑길 43코스", "region": "강원", "lat": 38.1200, "lng": 128.6000, "radius": 2500, "category": "hiking", "description": "9.4km. 하조대해변→동산항→물치항→수산항. 양양 북부 소담한 포구를 잇는 한적한 코스"},
    {"id": "haeparang-44", "name": "해파랑길 44코스", "region": "강원", "lat": 38.1800, "lng": 128.5700, "radius": 3500, "category": "hiking", "description": "12.5km. 수산항→속초해변→설악해변→속초해맞이공원. 설악산 조망과 속초 해변"},
    {"id": "haeparang-45", "name": "해파랑길 45코스", "region": "강원", "lat": 38.2600, "lng": 128.5900, "radius": 4500, "category": "hiking", "description": "16.9km. 속초해맞이공원→아바이마을→청초호→외옹치→장사항. 속초 아바이마을과 청초호 낭만"},
    {"id": "haeparang-46", "name": "해파랑길 46코스", "region": "강원", "lat": 38.3400, "lng": 128.5500, "radius": 4000, "category": "hiking", "description": "15.0km. 장사항→고성 DMZ박물관→화진포(관동팔경). 화진포 석호와 역사 안보의 공존"},
    {"id": "haeparang-47", "name": "해파랑길 47코스", "region": "강원", "lat": 38.4100, "lng": 128.4000, "radius": 2500, "category": "hiking", "description": "9.7km. 삼포해변→반암해변→가진항. 고성 해안의 조용하고 깨끗한 명품 해변들"},
    {"id": "haeparang-48", "name": "해파랑길 48코스", "region": "강원", "lat": 38.4800, "lng": 128.3800, "radius": 4500, "category": "hiking", "description": "16.4km. 가진항→공현진해변→거진해변→거진항. 고성 북부 청정 해안, DMZ 인근 마지막 자유 해변"},
    {"id": "haeparang-49", "name": "해파랑길 49코스", "region": "강원", "lat": 38.5400, "lng": 128.3700, "radius": 3500, "category": "hiking", "description": "11.8km. 거진항→대진항→마차진해변→통일안보공원. DMZ 접경 해안, 분단의 현실을 실감하는 코스"},
    {"id": "haeparang-50", "name": "해파랑길 50코스", "region": "강원", "lat": 38.5900, "lng": 128.3800, "radius": 3500, "category": "hiking", "description": "11.7km. 통일안보공원→명파해변→통일전망대. 해파랑길 종착점. DMZ 통일전망대에서 금강산을 바라보다"}
  ]
}
