{
  "spots": [
    {"id": "seoul-gyeongbokgung", "name": "경복궁", "region": "서울", "lat": 37.5796, "lng": 126.9770, "radius": 900, "category": "history", "description": "조선의 법궁. 근정전·경회루 등 국보급 전각이 즐비한 서울의 상징"},
    {"id": "seoul-bukchon", "name": "북촌한옥마을", "region": "서울", "lat": 37.5824, "lng": 126.9851, "radius": 600, "category": "history", "description": "600년 된 한옥 밀집 지역. 좁은 골목 사이로 전통 가옥이 이어진다"},
    {"id": "seoul-namsan", "name": "남산/N서울타워", "region": "서울", "lat": 37.5512, "lng": 126.9882, "radius": 1200, "category": "city", "description": "서울 중심부의 도심 산. 타워 전망대에서 서울 전경을 한눈에"},
    {"id": "seoul-changdeokgung", "name": "창덕궁/비원", "region": "서울", "lat": 37.5794, "lng": 126.9910, "radius": 900, "category": "history", "description": "유네스코 세계유산. 자연과 조화를 이룬 비밀 정원 후원이 압권"},
    {"id": "seoul-hongdae", "name": "홍대", "region": "서울", "lat": 37.5563, "lng": 126.9236, "radius": 800, "category": "city", "description": "젊음과 예술·음악이 넘치는 거리. 개성 있는 카페와 클럽 밀집"},
    {"id": "seoul-hangang", "name": "한강공원", "region": "서울", "lat": 37.5285, "lng": 126.9341, "radius": 2500, "category": "nature", "description": "서울 한복판을 가로지르는 강변 공원. 자전거·피크닉의 성지"},
    {"id": "seoul-bukhansan", "name": "북한산", "region": "서울", "lat": 37.6597, "lng": 126.9770, "radius": 5000, "category": "mountain", "description": "도심 속 국립공원. 백운대 정상에서 서울 전경 조망 가능"},
    {"id": "seoul-ddp", "name": "DDP 동대문디자인플라자", "region": "서울", "lat": 37.5669, "lng": 127.0091, "radius": 500, "category": "city", "description": "자하 하디드 설계의 유선형 랜드마크. 전시·쇼핑·패션의 허브"},
    {"id": "seoul-insadong", "name": "인사동", "region": "서울", "lat": 37.5740, "lng": 126.9860, "radius": 600, "category": "history", "description": "전통 공예품·갤러리·찻집이 모인 문화 거리"},
    {"id": "seoul-seoullo", "name": "서울로7017", "region": "서울", "lat": 37.5554, "lng": 126.9675, "radius": 500, "category": "city", "description": "옛 고가도로를 꽃길 공중정원으로 재탄생시킨 서울역 복합공간"},
    {"id": "gg-hwaseong", "name": "수원화성", "region": "경기", "lat": 37.2887, "lng": 127.0136, "radius": 1500, "category": "history", "description": "유네스코 세계유산. 정조대왕이 쌓은 아름다운 성곽"},
    {"id": "gg-namhansanseong", "name": "남한산성", "region": "경기", "lat": 37.4795, "lng": 127.1777, "radius": 3000, "category": "history", "description": "유네스코 세계유산. 산 전체를 아우르는 조선시대 산성"},
    {"id": "gg-imjingak", "name": "파주 임진각", "region": "경기", "lat": 37.8888, "lng": 126.7374, "radius": 2000, "category": "history", "description": "분단의 아픔을 느끼는 민통선 근처 평화공원"},
    {"id": "gg-heyri", "name": "파주 헤이리마을", "region": "경기", "lat": 37.7831, "lng": 126.7288, "radius": 1500, "category": "city", "description": "예술가들이 모여 사는 복합문화공간. 갤러리·박물관·카페 집결"},
    {"id": "gg-nami", "name": "남이섬", "region": "경기", "lat": 37.7901, "lng": 127.5278, "radius": 1500, "category": "nature", "description": "메타세쿼이아 가로수길로 유명한 드라마 촬영 명소"},
    {"id": "gg-dumulmeori", "name": "양평 두물머리", "region": "경기", "lat": 37.5310, "lng": 127.3023, "radius": 2000, "category": "nature", "description": "남한강과 북한강이 만나는 합수머리. 물안개 사진 명소"},
    {"id": "gg-ganghwa", "name": "강화도", "region": "인천", "lat": 37.7396, "lng": 126.4876, "radius": 8000, "category": "history", "description": "고인돌 유적지·마니산·전쟁 역사를 품은 서해의 역사 섬"},
    {"id": "ic-chinatown", "name": "인천 차이나타운", "region": "인천", "lat": 37.4759, "lng": 126.6176, "radius": 1000, "category": "city", "description": "한국 유일의 차이나타운. 짜장면 발상지로 이국적 분위기"},
    {"id": "ic-eurwangni", "name": "을왕리해수욕장", "region": "인천", "lat": 37.4478, "lng": 126.3830, "radius": 2000, "category": "beach", "description": "서해 낙조가 아름다운 수도권 가까운 해수욕장"},
    {"id": "ic-sorae", "name": "소래포구", "region": "인천", "lat": 37.4358, "lng": 126.7313, "radius": 1500, "category": "unique", "description": "수도권 최대 어항. 싱싱한 해산물과 젓갈로 유명"},
    {"id": "gw-seoraksan", "name": "설악산", "region": "강원", "lat": 38.1197, "lng": 128.4656, "radius": 12000, "category": "mountain", "description": "국립공원의 정수. 공룡능선·울산바위·대청봉이 사계절 절경"},
    {"id": "gw-gyeongpodae", "name": "강릉 경포대", "region": "강원", "lat": 37.7969, "lng": 128.8996, "radius": 3000, "category": "beach", "description": "관동팔경 중 으뜸. 경포호와 백사장이 어우러진 동해 최고 해변"},
    {"id": "gw-ojukheon", "name": "강릉 오죽헌", "region": "강원", "lat": 37.7774, "lng": 128.8694, "radius": 800, "category": "history", "description": "신사임당·율곡 이이의 생가. 오만원권 지폐의 배경"},
    {"id": "gw-abai", "name": "속초 아바이마을", "region": "강원", "lat": 38.2081, "lng": 128.5909, "radius": 1500, "category": "unique", "description": "함경도 실향민이 만든 마을. 아바이순대와 갯배가 명물"},
    {"id": "gw-nami-chuncheon", "name": "춘천 명동/닭갈비골목", "region": "강원", "lat": 37.8817, "lng": 127.7296, "radius": 1500, "category": "unique", "description": "춘천 닭갈비와 막국수의 본고장. 낭만적인 호반 도시"},
    {"id": "gw-jeongseon", "name": "정선 아라리마을", "region": "강원", "lat": 37.3786, "lng": 128.6613, "radius": 2000, "category": "unique", "description": "아리랑의 고장. 5일장과 레일바이크로 유명"},
    {"id": "gw-daegwallyeong", "name": "평창 대관령", "region": "강원", "lat": 37.6721, "lng": 128.7424, "radius": 6000, "category": "mountain", "description": "국내 최대 목장 지대. 양떼목장·선자령이 펼쳐진 고원 천국"},
    {"id": "gw-samcheok", "name": "삼척 죽서루", "region": "강원", "lat": 37.4496, "lng": 129.1683, "radius": 1000, "category": "history", "description": "관동팔경의 하나. 오십천 절벽 위에 선 고려시대 정자"},
    {"id": "gw-woljeongsa", "name": "오대산 월정사", "region": "강원", "lat": 37.6840, "lng": 128.5567, "radius": 4000, "category": "history", "description": "신라 창건 고찰. 전나무 숲길이 아름다운 천년 사찰"},
    {"id": "gw-naksansa", "name": "양양 낙산사", "region": "강원", "lat": 38.1116, "lng": 128.6395, "radius": 1500, "category": "history", "description": "동해 바다를 바라보는 관음 성지. 해수관음상이 장관"},
    {"id": "gw-baekdamsa", "name": "인제 백담사", "region": "강원", "lat": 38.1516, "lng": 128.4667, "radius": 5000, "category": "history", "description": "내설악 깊숙이 자리한 만해 한용운의 수행지"},
    {"id": "gw-tongil", "name": "고성 통일전망대", "region": "강원", "lat": 38.5834, "lng": 128.3691, "radius": 2000, "category": "history", "description": "최북단 민통선 전망대. 금강산을 조망할 수 있는 분단의 현장"},
    {"id": "gw-hantangang", "name": "철원 한탄강", "region": "강원", "lat": 38.2311, "lng": 127.3029, "radius": 5000, "category": "nature", "description": "화산 현무암 협곡. 주상절리·고석정·직탕폭포가 절경"},
    {"id": "gw-taeback", "name": "태백 황지연못/고원자연휴양림", "region": "강원", "lat": 37.1649, "lng": 128.9883, "radius": 2000, "category": "nature", "description": "한강 발원지. 해발 700m 고원 도시의 맑은 공기"},
    {"id": "cb-dodamsambong", "name": "단양 도담삼봉", "region": "충북", "lat": 36.9994, "lng": 128.3638, "radius": 2000, "category": "nature", "description": "남한강 한가운데 우뚝 솟은 세 봉우리. 단양팔경 중 으뜸"},
    {"id": "cb-chungjuho", "name": "충주호", "region": "충북", "lat": 37.0125, "lng": 128.0303, "radius": 6000, "category": "nature", "description": "충주댐이 만든 내륙 최대 호수. 유람선 여행 명소"},
    {"id": "cb-beopjusa", "name": "속리산 법주사", "region": "충북", "lat": 36.5435, "lng": 127.8325, "radius": 6000, "category": "history", "description": "국립공원 속리산 품의 신라 고찰. 청동 미륵대불이 압도적"},
    {"id": "cb-sangdang", "name": "청주 상당산성", "region": "충북", "lat": 36.6592, "lng": 127.5391, "radius": 2000, "category": "history", "description": "조선시대 석성. 성벽 따라 걷는 트레킹 코스"},
    {"id": "cb-cheongpungho", "name": "제천 청풍호", "region": "충북", "lat": 37.0381, "lng": 128.1763, "radius": 4000, "category": "nature", "description": "케이블카와 비봉산이 어우러진 산간 호수 여행지"},
    {"id": "cn-kkotji", "name": "태안 꽃지해변", "region": "충남", "lat": 36.5231, "lng": 126.3033, "radius": 3000, "category": "beach", "description": "할미·할아비 바위 사이로 지는 낙조가 환상적인 서해 해변"},
    {"id": "cn-daecheon", "name": "보령 대천해수욕장", "region": "충남", "lat": 36.3247, "lng": 126.5358, "radius": 3000, "category": "beach", "description": "세계 4대 머드 축제 개최지. 서해 최대 규모 해수욕장"},
    {"id": "cn-gongsanseong", "name": "공주 공산성", "region": "충남", "lat": 36.4602, "lng": 127.1294, "radius": 1500, "category": "history", "description": "유네스코 세계유산. 백제 웅진 도읍의 왕성"},
    {"id": "cn-baekje", "name": "부여 백제역사유적", "region": "충남", "lat": 36.2798, "lng": 126.9099, "radius": 3000, "category": "history", "description": "유네스코 세계유산. 정림사지·부소산성 등 백제의 찬란한 유산"},
    {"id": "cn-haemi", "name": "서산 해미읍성", "region": "충남", "lat": 36.7012, "lng": 126.5645, "radius": 1500, "category": "history", "description": "조선 가장 잘 보존된 읍성. 천주교 순교 성지"},
    {"id": "cn-anmyeon", "name": "태안 안면도", "region": "충남", "lat": 36.4524, "lng": 126.3814, "radius": 6000, "category": "beach", "description": "천리포수목원·꽃박람회로 유명한 서해 최대 섬 아닌 반도"},
    {"id": "dj-expo", "name": "엑스포과학공원", "region": "대전", "lat": 36.3745, "lng": 127.3883, "radius": 2000, "category": "city", "description": "93 대전 엑스포 개최지. 한빛탑과 다양한 과학 체험시설"},
    {"id": "dj-gyejoksan", "name": "계족산 황톳길", "region": "대전", "lat": 36.4253, "lng": 127.4615, "radius": 3000, "category": "mountain", "description": "14.5km 맨발 황톳길 산책로. 도심 속 힐링 명소"},
    {"id": "jb-jeonju-hanok", "name": "전주한옥마을", "region": "전북", "lat": 35.8151, "lng": 127.1497, "radius": 2000, "category": "history", "description": "700여 채 한옥이 밀집. 비빔밥·막걸리·전통문화 체험의 메카"},
    {"id": "jb-naejangsan", "name": "내장산", "region": "전북", "lat": 35.4850, "lng": 126.8897, "radius": 8000, "category": "mountain", "description": "전국 최고의 단풍 명산. 내장사와 단풍 터널이 환상적"},
    {"id": "jb-byeonsan", "name": "변산반도", "region": "전북", "lat": 35.6165, "lng": 126.6005, "radius": 8000, "category": "nature", "description": "내변산·외변산·채석강을 아우르는 국립공원. 서해 절경"},
    {"id": "jb-maisan", "name": "마이산", "region": "전북", "lat": 35.7405, "lng": 127.4117, "radius": 3000, "category": "mountain", "description": "말귀처럼 솟은 역고드름 신비 명산. 탑사 돌탑이 장관"},
    {"id": "jb-deokyusan", "name": "무주 덕유산", "region": "전북", "lat": 35.8817, "lng": 127.7289, "radius": 8000, "category": "mountain", "description": "무주리조트와 향적봉을 품은 사계절 산악 여행지"},
    {"id": "jb-gunsan", "name": "군산 근대역사거리", "region": "전북", "lat": 35.9699, "lng": 126.7113, "radius": 2000, "category": "history", "description": "일제강점기 건물이 고스란히 남은 시간여행 거리"},
    {"id": "jb-seonunsa", "name": "고창 선운사", "region": "전북", "lat": 35.5074, "lng": 126.5833, "radius": 3000, "category": "history", "description": "꽃무릇·동백꽃으로 유명한 백제 고찰. 도솔암 마애불이 신비롭다"},
    {"id": "jn-suncheonman", "name": "순천만 국가정원", "region": "전남", "lat": 34.9017, "lng": 127.4870, "radius": 5000, "category": "nature", "description": "국내 최초 국가정원. 갈대밭과 흑두루미 도래지로 유명"},
    {"id": "jn-boseong-tea", "name": "보성 녹차밭", "region": "전남", "lat": 34.7720, "lng": 127.0776, "radius": 3000, "category": "nature", "description": "드라마·CF 단골 촬영지. 초록 물결 치는 국내 최대 녹차밭"},
    {"id": "jn-damyang", "name": "담양 죽녹원·메타프로방스", "region": "전남", "lat": 35.3214, "lng": 126.9906, "radius": 2000, "category": "nature", "description": "대나무숲 산책과 떡갈비의 고장. 죽녹원이 힐링 성지"},
    {"id": "jn-yeosu", "name": "여수 오동도·밤바다", "region": "전남", "lat": 34.7410, "lng": 127.7615, "radius": 3000, "category": "unique", "description": "여수 밤바다로 유명. 동백꽃 섬 오동도와 케이블카 야경이 필수"},
    {"id": "jn-dolsan", "name": "여수 돌산도·향일암", "region": "전남", "lat": 34.6538, "lng": 127.7870, "radius": 4000, "category": "history", "description": "일출 명소 향일암과 갓김치의 고장 돌산도"},
    {"id": "jn-ttangkkeut", "name": "해남 땅끝마을", "region": "전남", "lat": 34.2897, "lng": 126.6044, "radius": 3000, "category": "unique", "description": "한반도 최남단. 땅끝탑에서 시작하는 국토종주의 출발점"},
    {"id": "jn-jindo", "name": "진도 신비의바닷길", "region": "전남", "lat": 34.4048, "lng": 126.3110, "radius": 3000, "category": "unique", "description": "매년 음력 2월 말 바다가 갈라지는 모세의 기적 현장"},
    {"id": "jn-cheongsando", "name": "완도 청산도", "region": "전남", "lat": 34.1716, "lng": 126.8650, "radius": 4000, "category": "island", "description": "슬로시티 1호. 구들장 논·돌담길이 있는 느림의 섬"},
    {"id": "jn-narodo", "name": "고흥 나로도·우주센터", "region": "전남", "lat": 34.4271, "lng": 127.5434, "radius": 5000, "category": "unique", "description": "나로호 발사대가 있는 항공우주과학관과 청정 해안"},
    {"id": "jn-purple", "name": "신안 퍼플섬", "region": "전남", "lat": 34.7576, "lng": 125.8880, "radius": 3000, "category": "island", "description": "건물·꽃·옷 모두 보라색. 전 세계가 주목한 색깔 테마 섬"},
    {"id": "jn-hwaeomsa", "name": "구례 화엄사·산수유마을", "region": "전남", "lat": 35.2239, "lng": 127.5143, "radius": 4000, "category": "history", "description": "지리산 자락의 화엄사와 봄 산수유꽃으로 유명한 구례"},
    {"id": "jn-mokpo", "name": "목포 근대역사관·유달산", "region": "전남", "lat": 34.7950, "lng": 126.3924, "radius": 2500, "category": "history", "description": "개항 도시 목포의 근대 건축 유산과 유달산 야경"},
    {"id": "gj-518", "name": "광주 5.18 민주화광장", "region": "광주", "lat": 35.1458, "lng": 126.9223, "radius": 1500, "category": "history", "description": "한국 민주화의 성지. 5.18 기념공원과 옛 전남도청"},
    {"id": "gj-yangnim", "name": "광주 양림동", "region": "광주", "lat": 35.1391, "lng": 126.9015, "radius": 1000, "category": "history", "description": "100년 역사 선교사 마을과 근대 건축이 공존하는 골목"},
    {"id": "gj-mudeungsan", "name": "무등산", "region": "광주", "lat": 35.1293, "lng": 127.0004, "radius": 8000, "category": "mountain", "description": "광주 시민의 진산. 주상절리 서석대·입석대가 경이롭다"},
    {"id": "gb-bulguksa", "name": "경주 불국사·석굴암", "region": "경북", "lat": 35.7901, "lng": 129.3318, "radius": 4000, "category": "history", "description": "유네스코 세계유산. 통일신라 불교 건축의 정수"},
    {"id": "gb-cheomseongdae", "name": "경주 역사지구", "region": "경북", "lat": 35.8349, "lng": 129.2191, "radius": 3000, "category": "history", "description": "천년 신라의 노천 박물관. 첨성대·대릉원·동궁과 월지가 필수"},
    {"id": "gb-hahoe", "name": "안동 하회마을", "region": "경북", "lat": 36.5376, "lng": 128.5193, "radius": 3000, "category": "history", "description": "유네스코 세계유산. 낙동강이 휘감는 전통 씨족 마을"},
    {"id": "gb-buseoksa", "name": "영주 부석사", "region": "경북", "lat": 36.9996, "lng": 128.6655, "radius": 2500, "category": "history", "description": "우리나라 최고(最古) 목조건물 무량수전이 있는 천년 고찰"},
    {"id": "gb-ulleungdo", "name": "울릉도", "region": "경북", "lat": 37.4996, "lng": 130.8652, "radius": 9000, "category": "island", "description": "동해 화산섬. 성인봉·나리분지·봉래폭포와 오징어 먹방"},
    {"id": "gb-dokdo", "name": "독도", "region": "경북", "lat": 37.2427, "lng": 131.8669, "radius": 2000, "category": "island", "description": "대한민국 최동단 섬. 동도·서도와 89개 부속도서로 구성"},
    {"id": "gb-homigot", "name": "포항 호미곶", "region": "경북", "lat": 36.0746, "lng": 129.5700, "radius": 2000, "category": "unique", "description": "한반도 최동단 육지. 상생의 손 조형물과 새해 일출로 유명"},
    {"id": "gb-mungyeong", "name": "문경새재", "region": "경북", "lat": 36.8002, "lng": 128.1264, "radius": 5000, "category": "history", "description": "영남대로의 관문. 3개 관문과 옛길이 KBS 드라마 촬영지"},
    {"id": "gb-juwangsan", "name": "청송 주왕산", "region": "경북", "lat": 36.3810, "lng": 129.1605, "radius": 8000, "category": "mountain", "description": "기암절벽과 협곡이 장관인 국립공원. 주산지 왕버들이 신비롭다"},
    {"id": "gb-cheongnyangsan", "name": "봉화 청량산", "region": "경북", "lat": 36.8048, "lng": 128.9232, "radius": 5000, "category": "mountain", "description": "퇴계 이황이 사랑한 12봉 기암 산. 낙동강 상류가 내려다보인다"},
    {"id": "dg-palgongsan", "name": "팔공산", "region": "대구", "lat": 35.9977, "lng": 128.6956, "radius": 8000, "category": "mountain", "description": "대구의 진산. 갓바위 부처님은 소원 하나는 꼭 이뤄준다는 믿음"},
    {"id": "dg-apsan", "name": "앞산공원", "region": "대구", "lat": 35.8312, "lng": 128.5716, "radius": 3000, "category": "mountain", "description": "대구 도심 남쪽의 명산. 케이블카 타고 오르는 전망이 일품"},
    {"id": "dg-modern", "name": "대구 근대골목 투어", "region": "대구", "lat": 35.8656, "lng": 128.5924, "radius": 1000, "category": "history", "description": "계산성당·이상화 고택·약령시를 잇는 개항기 근대 골목 투어"},
    {"id": "gn-tongyeong", "name": "통영 한려수도", "region": "경남", "lat": 34.8545, "lng": 128.4333, "radius": 8000, "category": "nature", "description": "동양의 나폴리. 케이블카·이순신 유적·꿀빵과 미륵산 풍경"},
    {"id": "gn-geoje", "name": "거제도", "region": "경남", "lat": 34.8806, "lng": 128.6210, "radius": 12000, "category": "island", "description": "바람의 언덕·외도·학동흑진주몽돌해변이 있는 남해 최대 섬"},
    {"id": "gn-namhae", "name": "남해 독일마을·다랑이마을", "region": "경남", "lat": 34.8147, "lng": 127.9013, "radius": 8000, "category": "unique", "description": "파독 광부들이 귀향해 만든 독일마을과 계단식 논 다랑이마을"},
    {"id": "gn-haeinsa", "name": "합천 해인사", "region": "경남", "lat": 35.7999, "lng": 128.0987, "radius": 5000, "category": "history", "description": "팔만대장경을 품은 법보종찰. 가야산 깊은 곳의 천년 고찰"},
    {"id": "gn-upo", "name": "창녕 우포늪", "region": "경남", "lat": 35.5574, "lng": 128.4298, "radius": 5000, "category": "nature", "description": "1억 4천만 년 된 우리나라 최대 자연 내륙 습지"},
    {"id": "gn-ssanggyesa", "name": "하동 쌍계사·화개장터", "region": "경남", "lat": 35.1967, "lng": 127.5793, "radius": 3000, "category": "history", "description": "십리 벚꽃 길과 화개장터. 지리산 자락 쌍계사의 야생 녹차"},
    {"id": "gn-jirisan", "name": "지리산", "region": "경남", "lat": 35.3378, "lng": 127.7306, "radius": 14000, "category": "mountain", "description": "남한 최고봉 천왕봉(1915m). 3개 도에 걸친 민족의 영산"},
    {"id": "gn-goseong", "name": "고성 공룡나라", "region": "경남", "lat": 34.9770, "lng": 128.3046, "radius": 3000, "category": "unique", "description": "세계 3대 공룡발자국 화석지. 1억 년 전 공룡이 걸어 다닌 해안"},
    {"id": "gn-hamyang", "name": "함양 상림숲", "region": "경남", "lat": 35.5274, "lng": 127.7103, "radius": 2000, "category": "nature", "description": "최치원이 조성한 한국 최초 인공 숲. 낙엽 지는 가을이 절정"},
    {"id": "bs-haeundae", "name": "해운대해수욕장", "region": "부산", "lat": 35.1589, "lng": 129.1603, "radius": 3000, "category": "beach", "description": "국내 최대 해수욕장. 마린시티 스카이라인과 함께 부산의 상징"},
    {"id": "bs-gwangalli", "name": "광안리해수욕장", "region": "부산", "lat": 35.1535, "lng": 129.1186, "radius": 2000, "category": "beach", "description": "광안대교 야경이 아름다운 도심 해변. 불꽃 축제 명소"},
    {"id": "bs-gamcheon", "name": "감천문화마을", "region": "부산", "lat": 35.0977, "lng": 129.0101, "radius": 1500, "category": "city", "description": "산비탈에 색색 집이 빼곡한 부산의 마추픽추"},
    {"id": "bs-taejongdae", "name": "태종대", "region": "부산", "lat": 35.0484, "lng": 129.0829, "radius": 3000, "category": "nature", "description": "영도 남단 해안 절벽 공원. 등대·전망대·다누비 열차"},
    {"id": "bs-jagalchi", "name": "자갈치시장", "region": "부산", "lat": 35.0966, "lng": 129.0303, "radius": 1000, "category": "unique", "description": "아지매! 아지매!. 국내 최대 수산물 시장과 신선회 한판"},
    {"id": "bs-yonggungsa", "name": "해동용궁사", "region": "부산", "lat": 35.1862, "lng": 129.2236, "radius": 1500, "category": "history", "description": "바다 위에 세워진 사찰. 파도 소리와 함께 기도하는 이색 사찰"},
    {"id": "bs-jukseong", "name": "기장 죽성드림성당", "region": "부산", "lat": 35.2564, "lng": 129.2248, "radius": 1000, "category": "unique", "description": "바닷가 바위 위의 이색 성당. 드라마 세트장이 명소가 됐다"},
    {"id": "ul-ganjeolgot", "name": "간절곶", "region": "울산", "lat": 35.3543, "lng": 129.3791, "radius": 2000, "category": "unique", "description": "한반도에서 새해 해가 가장 먼저 뜨는 곳. 소망 우체통이 명물"},
    {"id": "ul-taehwagang", "name": "태화강 국가정원", "region": "울산", "lat": 35.5591, "lng": 129.3224, "radius": 3000, "category": "nature", "description": "오염된 강이 생태 강으로 부활. 십리대밭과 꽃정원이 아름답다"},
    {"id": "ul-bangudae", "name": "반구대 암각화", "region": "울산", "lat": 35.6047, "lng": 129.1595, "radius": 2000, "category": "history", "description": "세계 최초 고래잡이 기록. 7000년 전 선사인의 암벽 그림"},
    {"id": "jj-hallasan", "name": "한라산", "region": "제주", "lat": 33.3617, "lng": 126.5292, "radius": 12000, "category": "mountain", "description": "남한 최고봉(1950m). 백록담 분화구와 계절별 꽃밭이 압도적"},
    {"id": "jj-seongsan", "name": "성산일출봉", "region": "제주", "lat": 33.4588, "lng": 126.9423, "radius": 2500, "category": "nature", "description": "유네스코 세계자연유산. 바다에서 솟은 수성화산 분화구"},
    {"id": "jj-manjanggul", "name": "만장굴", "region": "제주", "lat": 33.5278, "lng": 126.7702, "radius": 2000, "category": "nature", "description": "유네스코 세계자연유산. 세계 최장 용암동굴 중 하나"},
    {"id": "jj-cheonjiyeon", "name": "천지연폭포", "region": "제주", "lat": 33.2467, "lng": 126.5590, "radius": 1500, "category": "nature", "description": "높이 22m 제주 최대 폭포. 밤에도 열리는 야간 조명이 낭만적"},
    {"id": "jj-seopjikoji", "name": "섭지코지", "region": "제주", "lat": 33.4338, "lng": 126.9218, "radius": 2000, "category": "nature", "description": "유채꽃·억새가 넘실대는 해안 돌출부. 유리의 성 건축물이 이색적"},
    {"id": "jj-hyeopjae", "name": "협재해수욕장", "region": "제주", "lat": 33.3946, "lng": 126.2396, "radius": 2000, "category": "beach", "description": "에메랄드빛 투명한 물과 흰 모래. 제주에서 가장 아름다운 해수욕장"},
    {"id": "jj-udo", "name": "우도", "region": "제주", "lat": 33.5014, "lng": 126.9518, "radius": 3500, "category": "island", "description": "소가 누운 형상의 섬. 땅콩 아이스크림·홍조단괴 해변이 유명"},
    {"id": "jj-bijarim", "name": "비자림", "region": "제주", "lat": 33.4785, "lng": 126.8117, "radius": 2000, "category": "nature", "description": "수령 500~800년 비자나무 2800그루. 피톤치드 가득한 신비한 숲"},
    {"id": "jj-yongduam", "name": "용두암", "region": "제주", "lat": 33.5162, "lng": 126.5089, "radius": 1000, "category": "nature", "description": "용이 하늘로 승천하다 굳어버린 10m 해안 기암"},
    {"id": "jj-oreum", "name": "새별오름", "region": "제주", "lat": 33.4012, "lng": 126.3221, "radius": 2000, "category": "mountain", "description": "억새밭 오름. 정월대보름 들불축제 개최지이자 사진 명소"},
    {"id": "jj-sangumburi", "name": "산굼부리", "region": "제주", "lat": 33.4484, "lng": 126.7267, "radius": 1500, "category": "nature", "description": "천연기념물 수직 화구. 가을 억새밭이 황금빛으로 출렁인다"},
    {"id": "gg-dobongsan", "name": "도봉산", "region": "경기", "lat": 37.6897, "lng": 127.0270, "radius": 4000, "category": "mountain", "description": "화강암 기암이 장관인 서울 근교 명산. 자운봉·만장봉·선인봉의 짜릿한 암릉"},
    {"id": "seoul-gwanaksan", "name": "관악산", "region": "서울", "lat": 37.4428, "lng": 126.9638, "radius": 3000, "category": "mountain", "description": "서울 남쪽 수호산. 연주대 정상과 기암괴석, 사계절 등산객이 끊이지 않는다"},
    {"id": "gg-cheongyesan", "name": "청계산", "region": "경기", "lat": 37.4115, "lng": 127.0445, "radius": 3000, "category": "mountain", "description": "수도권 남부 최고 인기 등산로. 매봉~옥녀봉 능선이 아름답다"},
    {"id": "cb-sobaeksan", "name": "소백산", "region": "충북", "lat": 36.9583, "lng": 128.4875, "radius": 7000, "category": "mountain", "description": "국립공원 철쭉 명산. 5월 비로봉 철쭉 군락은 전국 최고"},
    {"id": "cb-woraksan", "name": "월악산", "region": "충북", "lat": 36.8681, "lng": 128.0783, "radius": 5000, "category": "mountain", "description": "국립공원 영봉(1,097m). 충주호를 내려다보는 수직 절벽이 압도적"},
    {"id": "cn-gyeryongsan", "name": "계룡산", "region": "충남", "lat": 36.3539, "lng": 127.2053, "radius": 4000, "category": "mountain", "description": "삼남 4대 명산이자 풍수지리의 명당. 천정계곡·갑사·동학사 코스"},
    {"id": "gw-taebaeksan", "name": "태백산", "region": "강원", "lat": 37.0947, "lng": 128.9166, "radius": 4000, "category": "mountain", "description": "천제단과 주목 군락지. 눈 쌓인 겨울 주목 설경이 압도적인 명산"},
    {"id": "gw-chiaksan", "name": "치악산", "region": "강원", "lat": 37.3703, "lng": 128.0581, "radius": 6000, "category": "mountain", "description": "국립공원 비로봉(1,288m). 단풍·설경이 아름다운 강원 서부의 명산"},
    {"id": "gw-dutasan", "name": "두타산·무릉계곡", "region": "강원", "lat": 37.3616, "lng": 129.0806, "radius": 4000, "category": "mountain", "description": "동해안 최고 계곡 무릉계곡과 두타산·청옥산 종주 코스가 유명"},
    {"id": "gw-gariwangsan", "name": "가리왕산", "region": "강원", "lat": 37.4617, "lng": 128.5681, "radius": 5000, "category": "mountain", "description": "원시림이 살아있는 국가 보호 산림. 태고적 자연의 보고"},
    {"id": "gn-hwangmaesan", "name": "황매산", "region": "경남", "lat": 35.4964, "lng": 127.9910, "radius": 3000, "category": "mountain", "description": "5월 황매평전 철쭉 군락이 압권. 운해와 일출 사진 명소"},
    {"id": "gn-hwawangsan", "name": "화왕산", "region": "경남", "lat": 35.5413, "lng": 128.5614, "radius": 2000, "category": "mountain", "description": "가을 억새 군락으로 유명. 화왕산성과 억새 바람이 장관"},
    {"id": "jn-cheongwansan", "name": "천관산", "region": "전남", "lat": 34.6801, "lng": 126.9104, "radius": 2000, "category": "mountain", "description": "가을 억새와 기암괴석. 남도 명산으로 다도해 조망이 일품"},
    {"id": "jn-pallyeongsan", "name": "팔영산", "region": "전남", "lat": 34.6193, "lng": 127.4393, "radius": 2500, "category": "mountain", "description": "8개 암봉에서 내려다보는 다도해 절경. 오르기 쉬운 국립공원"},
    {"id": "gb-geumosan", "name": "금오산", "region": "경북", "lat": 36.1186, "lng": 128.3135, "radius": 3000, "category": "mountain", "description": "구미 도립공원. 케이블카와 해운사·약사암이 있는 영남 명산"},
    {"id": "jj-ollae", "name": "제주 올레길", "region": "제주", "lat": 33.4570, "lng": 126.9130, "radius": 5000, "category": "hiking", "description": "총 437km 26개 코스. 오름·바다·마을을 잇는 제주 대표 걷기 여행"},
    {"id": "jj-saeryeonikil", "name": "제주 사려니숲길", "region": "제주", "lat": 33.4380, "lng": 126.8040, "radius": 3000, "category": "hiking", "description": "해발 500~600m 삼나무·서어나무 원시림. 신비로운 피톤치드 숲길 15km"},
    {"id": "gn-jirisan-trail", "name": "지리산 둘레길", "region": "경남", "lat": 35.2850, "lng": 127.7100, "radius": 8000, "category": "hiking", "description": "3개 도 5개 시군을 잇는 295km 천리길. 산마을 문화와 자연 속 걷기"},
    {"id": "gw-haeparang", "name": "해파랑길", "region": "강원", "lat": 37.8000, "lng": 128.9200, "radius": 6000, "category": "hiking", "description": "부산~고성 770km 동해안 걷기길. 바다·해변·어촌마을을 따라 걷는 국내 최장 트레일"},
    {"id": "gg-bukhansan-trail", "name": "북한산 둘레길", "region": "경기", "lat": 37.6300, "lng": 127.0100, "radius": 5000, "category": "hiking", "description": "71.5km 숲속 길. 북한산 산자락을 감싸는 21개 구간의 힐링 트레킹"},
    {"id": "gg-dmz-trail", "name": "DMZ 평화누리길", "region": "경기", "lat": 38.0500, "lng": 127.0700, "radius": 5000, "category": "hiking", "description": "비무장지대를 따라 걷는 5개 구간 157km. 분단의 역사와 생태계가 공존"},
    {"id": "gw-baugil", "name": "강릉 바우길", "region": "강원", "lat": 37.7514, "lng": 128.8760, "radius": 3000, "category": "hiking", "description": "경포호·정동진·대관령을 잇는 17개 구간. 호수·숲·바다·산을 모두 걷는다"},
    {"id": "bs-galmaetgil", "name": "부산 갈맷길", "region": "부산", "lat": 35.1600, "lng": 129.1000, "radius": 5000, "category": "hiking", "description": "278km 9개 코스 부산 해안 걷기길. 해운대·태종대·이기대 해안이 핵심"},
    {"id": "jn-bireonggil", "name": "여수 금오도 비렁길", "region": "전남", "lat": 34.5810, "lng": 127.7900, "radius": 3000, "category": "hiking", "description": "해안 절벽 비렁(벼랑)을 따라가는 5개 코스 18.5km. 남해 절경 속 걷기"},
    {"id": "gn-baraegil", "name": "남해 바래길", "region": "경남", "lat": 34.8300, "lng": 127.9200, "radius": 4000, "category": "hiking", "description": "바다를 바라보며 걷는 해안 마을 트레킹. 쪽빛 남해와 다랭이논 조망"},
    {"id": "seoul-inwangsan", "name": "인왕산 한양도성길", "region": "서울", "lat": 37.5820, "lng": 126.9630, "radius": 1500, "category": "hiking", "description": "조선 한양도성 성곽을 따라 걷는 코스. 백악·인왕 구간에서 서울 전경 조망"}
  ]
}
